{"type":"FeatureCollection", "features":[
{"type":"Feature","geometry":{"type":"Point","coordinates":[31.2024019,30.0534899]},"properties":{"osm_id":271856707,"highway":"crossing"}},
{"type":"Feature","geometry":{"type":"Point","coordinates":[31.2,30.05]},"properties":{"osm_id":768591708,"int_name":"El mohandesin;El Mohandesin","name":"المهندسين","name:ar":"المهندسين","name:de":"El Mohandesin","name:en":"El Mohandesin","name:fr":"El Mohandesin","place":"suburb"}},
{"type":"Feature","geometry":{"type":"Point","coordinates":[31.2022746,30.0523085]},"properties":{"osm_id":841512373,"name":"سفارة الكنغو","name:ar":"سفارة الكونغو","name:en":"Embassy of Congo","name:fr":"Ambassade du Congo","alt_name":"سفارة الكنغو","country":"CG","diplomatic":"embassy","embassy":"yes","office":"diplomatic","target":"EG"}},
{"type":"Feature","geometry":{"type":"Point","coordinates":[31.196215,30.0524742]},"properties":{"osm_id":841513160,"name":"سفارة موريتانيا","name:ar":"سفارة موريتانيا","name:en":"Embassy of Mauritania","name:fr":"Ambassade de Mauritanie","alt_name":"سفارة موريتانيا","country":"MR","diplomatic":"embassy","embassy":"yes","office":"diplomatic","target":"EG"}},
{"type":"Feature","geometry":{"type":"Point","coordinates":[31.1982965,30.0474686]},"properties":{"osm_id":841522739,"name":"سفارة كوبا","name:ar":"سفارة كوبا","name:en":"Embassy of Cuba","name:fr":"Ambassade de Cuba","alt_name":"سفارة كوبا","country":"CU","diplomatic":"embassy","embassy":"yes","office":"diplomatic","target":"EG"}},
{"type":"Feature","geometry":{"type":"Point","coordinates":[31.2024056,30.041079]},"properties":{"osm_id":841524820,"name":"سفارة ليبيريا","name:ar":"سفارة ليبيريا","name:en":"Embassy of Liberia","name:fr":"Ambassade du Libéria","alt_name":"سفارة ليبيريا","country":"LR","diplomatic":"embassy","embassy":"yes","office":"diplomatic","target":"EG"}},
{"type":"Feature","geometry":{"type":"Point","coordinates":[31.1903684,30.0550293]},"properties":{"osm_id":1640257714,"railway":"level_crossing"}},
{"type":"Feature","geometry":{"type":"Point","coordinates":[31.1872587,30.0498157]},"properties":{"osm_id":1918977326,"name":"Art al-lewa","amenity":"arts_centre"}},
{"type":"Feature","geometry":{"type":"Point","coordinates":[31.1913711,30.0483563]},"properties":{"osm_id":1920560698,"name":"مسجد الهادى","name:ar":"مسجد الهادى","name:en":"Al-Hady Mosque","amenity":"place_of_worship","denomination":"sunni","religion":"muslim"}},
{"type":"Feature","geometry":{"type":"Point","coordinates":[31.1872566,30.0498215]},"properties":{"osm_id":1920568980,"name":"Dr. Nasr Al-Din Pharmacy","name:ar":"صيدلية د. نصر الدين","name:en":"Dr. Nasr Al-Din Pharmacy","amenity":"pharmacy","dispensing":"صيدلية د.نصر الدين"}},
{"type":"Feature","geometry":{"type":"Point","coordinates":[31.1895577,30.0496023]},"properties":{"osm_id":1920585578,"name":"البان الاصدقاء","name:ar":"البان الاصدقاء","name:en":"Al-Asdeqaa Dairy","shop":"kiosk"}},
{"type":"Feature","geometry":{"type":"Point","coordinates":[31.1890429,30.0495938]},"properties":{"osm_id":1920585579,"name":"باكين سعيد","name:ar":"باكين سعيد","name:en":"Bakeen Saeed","shop":"paint"}},
{"type":"Feature","geometry":{"type":"Point","coordinates":[31.1888832,30.0496188]},"properties":{"osm_id":1920585580,"name":"دبور ماركت","name:ar":"دبور ماركت","name:en":"Dabour Market","shop":"supermarket"}},
{"type":"Feature","geometry":{"type":"Point","coordinates":[31.1891675,30.0496021]},"properties":{"osm_id":1920585585,"name":"مسجد التقوى","name:ar":"مسجد التقوى","name:en":"Al-Taqwa Mosque","amenity":"place_of_worship","denomination":"sunni","religion":"muslim"}},
{"type":"Feature","geometry":{"type":"Point","coordinates":[31.1913093,30.0487814]},"properties":{"osm_id":1920592949,"name":"موبيليات الزهراء","name:ar":"موبيليات الزهراء","name:en":"Al-Zahraa Furniture","shop":"furniture","addr:city":"القاهرة"}},
{"type":"Feature","geometry":{"type":"Point","coordinates":[31.2034331,30.0486883]},"properties":{"osm_id":1930276302,"name":"Retro","amenity":"restaurant"}},
{"type":"Feature","geometry":{"type":"Point","coordinates":[31.2033284,30.0485582]},"properties":{"osm_id":1930277498,"name":"TBS","shop":"bakery"}},
{"type":"Feature","geometry":{"type":"Point","coordinates":[31.2019709,30.0538408]},"properties":{"osm_id":2031386834,"highway":"crossing"}},
{"type":"Feature","geometry":{"type":"Point","coordinates":[31.1957541,30.0497498]},"properties":{"osm_id":2097927378,"name":"صيدلية محمد صلاح","name:ar":"صيدلية محمد صلاح","name:en":"Mohamed Salah Pharmacy","amenity":"pharmacy","addr:city":"القاهرة","healthcare":"pharmacy"}},
{"type":"Feature","geometry":{"type":"Point","coordinates":[31.1981488,30.0422847]},"properties":{"osm_id":2109934621,"name:ar":"سيلانترو","name:en":"Cilantro","amenity":"cafe","cuisine":"coffee_shop","internet_access":"wlan"}},
{"type":"Feature","geometry":{"type":"Point","coordinates":[31.2004126,30.0425216]},"properties":{"osm_id":2109936438,"name":"ماكدونالدز","name:ar":"ماكدونالدز","name:en":"McDonalds","amenity":"fast_food","cuisine":"burger"}},
{"type":"Feature","geometry":{"type":"Point","coordinates":[31.1977975,30.0426864]},"properties":{"osm_id":2109936441,"name:ar":"ستاربكس","name:en":"Starbucks","amenity":"cafe","cuisine":"coffee_shop"}},
{"type":"Feature","geometry":{"type":"Point","coordinates":[31.2028026,30.0413231]},"properties":{"osm_id":2112432271,"name":"السمني","name:ar":"السمني","name:en":"Al-Samny","amenity":"pharmacy","healthcare":"pharmacy"}},
{"type":"Feature","geometry":{"type":"Point","coordinates":[31.2001419,30.0429859]},"properties":{"osm_id":2116839298,"name":"Flower Basket","shop":"florist"}},
{"type":"Feature","geometry":{"type":"Point","coordinates":[31.2000775,30.0431669]},"properties":{"osm_id":2116839299,"name":"البنك الأهلي سوسيتيه جنرال","name:ar":"البنك الأهلي سوسيتيه جنرال","name:en":"NSGB","amenity":"bank","atm":"yes"}},
{"type":"Feature","geometry":{"type":"Point","coordinates":[31.1999059,30.0439378]},"properties":{"osm_id":2116839300,"name":"المشربية","name:ar":"المشربية","name:en":"Mashrabeyya","tourism":"artwork"}},
{"type":"Feature","geometry":{"type":"Point","coordinates":[31.1997718,30.0444769]},"properties":{"osm_id":2116839301,"name":"Levity","shop":"clothes"}},
{"type":"Feature","geometry":{"type":"Point","coordinates":[31.1997395,30.0445835]},"properties":{"osm_id":2116839302,"name":"Passage shoes","shop":"clothes"}},
{"type":"Feature","geometry":{"type":"Point","coordinates":[31.1997074,30.044867]},"properties":{"osm_id":2116839303,"name":"U Turn","shop":"clothes"}},
{"type":"Feature","geometry":{"type":"Point","coordinates":[31.1995625,30.0454702]},"properties":{"osm_id":2116839304,"name":"dixit","shop":"clothes"}},
{"type":"Feature","geometry":{"type":"Point","coordinates":[31.1995355,30.0456425]},"properties":{"osm_id":2116839305,"name":"RadioShack","shop":"hifi"}},
{"type":"Feature","geometry":{"type":"Point","coordinates":[31.1994338,30.046306]},"properties":{"osm_id":2116839307,"name":"Choco chocola","shop":"confectionery"}},
{"type":"Feature","geometry":{"type":"Point","coordinates":[31.1993324,30.0467519]},"properties":{"osm_id":2116839324,"name":"The Setup","shop":"gift"}},
{"type":"Feature","geometry":{"type":"Point","coordinates":[31.1986184,30.0468447]},"properties":{"osm_id":2116839349,"name":"Peking","name:ar":"بكين","name:en":"Peking","amenity":"restaurant","cuisine":"chinese"}},
{"type":"Feature","geometry":{"type":"Point","coordinates":[31.1994121,30.046404]},"properties":{"osm_id":2116839373,"name":"البنك المصري لتنمية الصادرات","name:ar":"البنك المصري لتنمية الصادرات","name:en":"Egyptian Bank forExport Development","amenity":"bank"}},
{"type":"Feature","geometry":{"type":"Point","coordinates":[31.1996913,30.0449965]},"properties":{"osm_id":2116839409,"name":"بنك الاتحاد الوطني","name:ar":"بنك الاتحاد الوطني","name:en":"National Union Bank","amenity":"bank"}},
{"type":"Feature","geometry":{"type":"Point","coordinates":[31.2011075,30.0427583]},"properties":{"osm_id":2116839449,"name":"Concrete","shop":"clothes"}},
{"type":"Feature","geometry":{"type":"Point","coordinates":[31.2019229,30.0427769]},"properties":{"osm_id":2116839453,"name":"Femina","shop":"clothes"}},
{"type":"Feature","geometry":{"type":"Point","coordinates":[31.2025666,30.0428883]},"properties":{"osm_id":2116839454,"name":"Wild","shop":"clothes"}},
{"type":"Feature","geometry":{"type":"Point","coordinates":[31.2026095,30.042684]},"properties":{"osm_id":2116839455,"name":"صلاح الدين","name:ar":"صلاح الدين","name:en":"Salah Al-Din","amenity":"pharmacy","healthcare":"pharmacy"}},
{"type":"Feature","geometry":{"type":"Point","coordinates":[31.202395,30.0424239]},"properties":{"osm_id":2116839456,"name":"سنغافورا","name:ar":"سنغافورا","name:en":"Embassy of Singapore","name:fr":"Ambassade de Singapour","country":"SG","diplomatic":"embassy","embassy":"yes","office":"diplomatic","target":"EG","addr:housenumber":"40","addr:street":"شارع البطل عدنان عمر صدقى","opening_hours":"Su-Th 08:30-15:00","phone":"+20-2-3749-0468","website":"https://www.mfa.gov.sg/Cairo","wikidata":"Q111552250"}},
{"type":"Feature","geometry":{"type":"Point","coordinates":[31.2026525,30.0412816]},"properties":{"osm_id":2116839457,"name":"Pangea","amenity":"restaurant"}},
{"type":"Feature","geometry":{"type":"Point","coordinates":[31.202631,30.0407336]},"properties":{"osm_id":2116839458,"name":"Sugar Rush","amenity":"cafe"}},
{"type":"Feature","geometry":{"type":"Point","coordinates":[31.2029958,30.0406872]},"properties":{"osm_id":2116839461,"name":"Purple","amenity":"cafe"}},
{"type":"Feature","geometry":{"type":"Point","coordinates":[31.200018,30.0427631]},"properties":{"osm_id":2116856918,"amenity":"fountain"}},
{"type":"Feature","geometry":{"type":"Point","coordinates":[31.1964582,30.0362054]},"properties":{"osm_id":2265685736,"name":"بولاق الدكرور","name:ar":"بولاق الدكرور","name:en":"Bulaq Al-Dakrour","railway":"station"}},
{"type":"Feature","geometry":{"type":"Point","coordinates":[31.1943884,30.0407685]},"properties":{"osm_id":2265685744,"name":"بولاق الدكرور","name:ar":"بولاق الدكرور","name:en":"Bulaq El Dakrour","amenity":"bus_station"}},
{"type":"Feature","geometry":{"type":"Point","coordinates":[31.2039185,30.0419038]},"properties":{"osm_id":2383518242,"name":"لاكازيتا","name:ar":"لاكازيتا","name:en":"La Casetta","amenity":"restaurant","cuisine":"italian"}},
{"type":"Feature","geometry":{"type":"Point","coordinates":[31.1865007,30.0512777]},"properties":{"osm_id":2518956244,"name":"البان مكة","name:ar":"البان مكة","shop":"supermarket"}},
{"type":"Feature","geometry":{"type":"Point","coordinates":[31.2028616,30.0407058]},"properties":{"osm_id":3008775412,"name":"Karakeeb","amenity":"cafe"}},
{"type":"Feature","geometry":{"type":"Point","coordinates":[31.2030461,30.0412756]},"properties":{"osm_id":3008775413,"name":"Kanaka","amenity":"cafe"}},
{"type":"Feature","geometry":{"type":"Point","coordinates":[31.1934767,30.0526026]},"properties":{"osm_id":3100191978,"name":"Bert's cafe","amenity":"cafe","addr:city":"القاهرة"}},
{"type":"Feature","geometry":{"type":"Point","coordinates":[31.1944807,30.0518353]},"properties":{"osm_id":3100194493,"name":"Adam's Hospital","name:ar":"Adam's Hospital مستشفى ادم","amenity":"hospital","addr:city":"القاهرة"}},
{"type":"Feature","geometry":{"type":"Point","coordinates":[31.2032437,30.0433068]},"properties":{"osm_id":3230584932,"name":"نادى الصيد","name:ar":"نادى الصيد","name:en":"Shooting Club","leisure":"sports_centre","note":"tag name --> arabic"}},
{"type":"Feature","geometry":{"type":"Point","coordinates":[31.1934274,30.0527696]},"properties":{"osm_id":3298334286,"name":"Gold's Gym","leisure":"fitness_centre"}},
{"type":"Feature","geometry":{"type":"Point","coordinates":[31.1957617,30.0525693]},"properties":{"osm_id":3447104290,"name":"Metro","shop":"wholesale","addr:city":"القاهرة","brand":"Metro","brand:wikidata":"Q13610282","brand:wikipedia":"en:Metro Cash & Carry","name:fa":"مترو"}},
{"type":"Feature","geometry":{"type":"Point","coordinates":[31.1969057,30.0526266]},"properties":{"osm_id":3966622154,"name":"ليزك مصر","name:ar":"ليزك مصر","amenity":"clinic","healthcare":"clinic"}},
{"type":"Feature","geometry":{"type":"Point","coordinates":[31.1977881,30.0489374]},"properties":{"osm_id":4216570590,"shop":"department_store"}},
{"type":"Feature","geometry":{"type":"Point","coordinates":[31.19591,30.0463906]},"properties":{"osm_id":4217576594,"highway":"rest_area"}},
{"type":"Feature","geometry":{"type":"Point","coordinates":[31.1981283,30.0416327]},"properties":{"osm_id":4235684702,"name":"أبو ردة","name:ar":"أبو ردة","amenity":"restaurant"}},
{"type":"Feature","geometry":{"type":"Point","coordinates":[31.1954244,30.047909]},"properties":{"osm_id":4357999095,"name":"برج الدوحه 11 ش دجله","name:ar":"برج الدوحه 11 ش دجله","addr:city":"القاهرة","tourism":"motel"}},
{"type":"Feature","geometry":{"type":"Point","coordinates":[31.1973704,30.0500891]},"properties":{"osm_id":4362779996,"name":"29 ش دجله","name:ar":"29 ش دجله","addr:city":"القاهرة","tourism":"motel"}},
{"type":"Feature","geometry":{"type":"Point","coordinates":[31.197121,30.052777]},"properties":{"osm_id":4535673596,"name":"رواد تصحيح الإبصار","name:ar":"رواد تصحيح الإبصار","amenity":"hospital","addr:city":"القاهرة","healthcare":"hospital"}},
{"type":"Feature","geometry":{"type":"Point","coordinates":[31.1942975,30.0477787]},"properties":{"osm_id":4551412389,"name":"الشهيد نبيل سيد الرده (الناصريه)","name:ar":"الشهيد نبيل سيد الرده (الناصريه)","name:en":"Al Shahid Nabil said elrda","amenity":"school","addr:city":"القاهرة","opening_hours":"Su-Th 07:30-02:30"}},
{"type":"Feature","geometry":{"type":"Point","coordinates":[31.2009504,30.0518416]},"properties":{"osm_id":4612661997,"name":"HSBC","name:ar":"hsbc bank فرع جامعة الدول","amenity":"bank","addr:city":"القاهرة","brand":"HSBC","brand:wikidata":"Q190464","brand:wikipedia":"en:HSBC"}},
{"type":"Feature","geometry":{"type":"Point","coordinates":[31.1991368,30.0520076]},"properties":{"osm_id":4612691190,"name":"hsbc bank فرع جزيرة العرب","name:ar":"hsbc bank فرع جزيرة العرب","amenity":"bank","addr:city":"القاهرة"}},
{"type":"Feature","geometry":{"type":"Point","coordinates":[31.2038133,30.0430927]},"properties":{"osm_id":4612718294,"name":"HSBC","name:ar":"hsbc bank فرع نادى الصيد","amenity":"bank","brand":"HSBC","brand:wikidata":"Q190464","brand:wikipedia":"en:HSBC"}},
{"type":"Feature","geometry":{"type":"Point","coordinates":[31.2042596,30.0411108]},"properties":{"osm_id":4692269091,"name:en":"49 Amman Street","tourism":"guest_house"}},
{"type":"Feature","geometry":{"type":"Point","coordinates":[31.1923632,30.048371]},"properties":{"osm_id":4705405893,"name":"امل احمد موسى غراب","name:ar":"امل احمد موسى غراب","name:en":"Amal ahmed moussa gorab","amenity":"doctors","addr:city":"القاهرة"}},
{"type":"Feature","geometry":{"type":"Point","coordinates":[31.192384,30.0482619]},"properties":{"osm_id":4705432089,"name":"كنتاكي","name:ar":"كنتاكي","name:en":"KFC","amenity":"fast_food"}},
{"type":"Feature","geometry":{"type":"Point","coordinates":[31.1925384,30.0476175]},"properties":{"osm_id":4705432189,"name":"قصر الاليزيه","name:ar":"قصر الاليزيه","shop":"confectionery","addr:city":"القاهرة"}},
{"type":"Feature","geometry":{"type":"Point","coordinates":[31.1984951,30.0447547]},"properties":{"osm_id":4798822623,"name:en":"Bull's Eye","amenity":"bar"}},
{"type":"Feature","geometry":{"type":"Point","coordinates":[31.1964284,30.0465767]},"properties":{"osm_id":4826265721,"name":"عمارة الاسواق الحرة","name:ar":"عمارة الاسواق الحرة","shop":"convenience","addr:city":"القاهرة"}},
{"type":"Feature","geometry":{"type":"Point","coordinates":[31.1988648,30.0523099]},"properties":{"osm_id":4965247221,"name:en":"TLScontacts","office":"company","opening_hours":"Su-Th 08:30-12:00, 13:00-16:30","phone":"0233313221","website":"http://www.tlscontact.com"}},
{"type":"Feature","geometry":{"type":"Point","coordinates":[31.197698,30.0446059]},"properties":{"osm_id":4973314121,"name":"منزلي مصر","name:ar":"منزلي مصر","tourism":"hotel"}},
{"type":"Feature","geometry":{"type":"Point","coordinates":[31.1977483,30.043608]},"properties":{"osm_id":5002853824,"name":"منزل اسماعيل","name:ar":"منزل اسماعيل","tourism":"attraction","addr:housenumber":"15","addr:street":"شارع جدة","phone":"01066970629","email":"ismaelabbas1976@gmail.com"}},
{"type":"Feature","geometry":{"type":"Point","coordinates":[31.1965933,30.0528389]},"properties":{"osm_id":5590796421,"name":"Dunkin' Donuts","shop":"confectionery","addr:city":"القاهرة"}},
{"type":"Feature","geometry":{"type":"Point","coordinates":[31.203212,30.0430202]},"properties":{"osm_id":5673118629,"name":"البنك العربى","name:ar":"البنك العربى","amenity":"bank","addr:street":"نادى الصيد"}},
{"type":"Feature","geometry":{"type":"Point","coordinates":[31.1937671,30.0432268]},"properties":{"osm_id":5673121227,"name":"كافية ادم","name:ar":"كافية ادم","amenity":"cafe"}},
{"type":"Feature","geometry":{"type":"Point","coordinates":[31.1943995,30.042655]},"properties":{"osm_id":5673178621,"name":"هيئة التأمين الصحي فرع الدقى","name:ar":"هيئة التأمين الصحي فرع الدقى","office":"insurance"}},
{"type":"Feature","geometry":{"type":"Point","coordinates":[31.1904809,30.047568]},"properties":{"osm_id":5711821023,"amenity":"post_office"}},
{"type":"Feature","geometry":{"type":"Point","coordinates":[31.1903906,30.0478824]},"properties":{"osm_id":5720774622,"name":"Awsan","name:ar":"Apartment","name:en":"Apartment","tourism":"apartment"}},
{"type":"Feature","geometry":{"type":"Point","coordinates":[31.1946301,30.0412917]},"properties":{"osm_id":6123242598,"name":"فرع المصرية للاتصالات","name:ar":"فرع المصرية للاتصالات","name:en":"we store","office":"telecommunication"}},
{"type":"Feature","geometry":{"type":"Point","coordinates":[31.1949468,30.0527729]},"properties":{"osm_id":6168936585,"name:en":"Trio Hotel Caroline Crillon","addr:city":"القاهرة","tourism":"hotel"}},
{"type":"Feature","geometry":{"type":"Point","coordinates":[31.2019968,30.0527565]},"properties":{"osm_id":6459500493,"name":"المدينه","name:ar":"المدينه","shop":"supermarket","addr:city":"القاهرة"}},
{"type":"Feature","geometry":{"type":"Point","coordinates":[31.1997857,30.0519389]},"properties":{"osm_id":6771393375,"addr:housenumber":"1","addr:street":"شارع حلمى محمد حسن","addr:country":"EG","addr:district":"العجوزه","addr:district:en":"Al Agouza","addr:postcode":"12655","addr:province":"الجيزه","addr:province:en":"Giza","addr:street:en":"Helmy Mohamed Hassn Street","addr:subdistrict":"المهندسين","addr:subdistrict:en":"Al Mohandessin"}},
{"type":"Feature","geometry":{"type":"Point","coordinates":[31.197795,30.0521985]},"properties":{"osm_id":6771393384,"addr:housenumber":"12","addr:street":"شارع الحجاز","addr:country":"EG","addr:district":"العجوزه","addr:district:en":"Al Agouza","addr:postcode":"12655","addr:province":"الجيزه","addr:province:en":"Giza","addr:street:en":"Al Hegaz Street","addr:subdistrict":"المهندسين","addr:subdistrict:en":"Al Mohandessin"}},
{"type":"Feature","geometry":{"type":"Point","coordinates":[31.1979264,30.0497793]},"properties":{"osm_id":6771435240,"addr:housenumber":"6","addr:street":"شارع جامعه الدول العربيه","addr:country":"EG","addr:district":"العجوزه","addr:district:en":"Al Agouza","addr:postcode":"12655","addr:province":"الجيزه","addr:province:en":"Giza","addr:street:en":"Gamaa Al Doul Al Arabiya Street","addr:subdistrict":"المهندسين","addr:subdistrict:en":"Al Mohandessin"}},
{"type":"Feature","geometry":{"type":"Point","coordinates":[31.1981437,30.0500162]},"properties":{"osm_id":6771435241,"addr:housenumber":"4","addr:street":"شارع جامعه الدول العربيه","addr:country":"EG","addr:district":"العجوزه","addr:district:en":"Al Agouza","addr:postcode":"12655","addr:province":"الجيزه","addr:province:en":"Giza","addr:street:en":"Gamaa Al Doul Al Arabiya Street","addr:subdistrict":"المهندسين","addr:subdistrict:en":"Al Mohandessin"}},
{"type":"Feature","geometry":{"type":"Point","coordinates":[31.1980632,30.0501903]},"properties":{"osm_id":6771435242,"addr:housenumber":"3","addr:street":"شارع جامعه الدول العربيه","addr:country":"EG","addr:district":"العجوزه","addr:district:en":"Al Agouza","addr:postcode":"12655","addr:province":"الجيزه","addr:province:en":"Giza","addr:street:en":"Gamaa Al Doul Al Arabiya Street","addr:subdistrict":"المهندسين","addr:subdistrict:en":"Al Mohandessin"}},
{"type":"Feature","geometry":{"type":"Point","coordinates":[31.1987767,30.0508334]},"properties":{"osm_id":6771435265,"addr:housenumber":"37","addr:street":"شارع جامعه الدول العربيه","addr:country":"EG","addr:district":"العجوزه","addr:district:en":"Al Agouza","addr:postcode":"12655","addr:province":"الجيزه","addr:province:en":"Giza","addr:street:en":"Gamaa Al Doul Al Arabiya Street","addr:subdistrict":"المهندسين","addr:subdistrict:en":"Al Mohandessin"}},
{"type":"Feature","geometry":{"type":"Point","coordinates":[31.1966123,30.0514217]},"properties":{"osm_id":6771440202,"addr:housenumber":"6","addr:street":"شارع رامز","addr:country":"EG","addr:district":"العجوزه","addr:district:en":"Al Agouza","addr:postcode":"12655","addr:province":"الجيزه","addr:province:en":"Giza","addr:street:en":"Ramez Street","addr:subdistrict":"المهندسين","addr:subdistrict:en":"Al Mohandessin"}},
{"type":"Feature","geometry":{"type":"Point","coordinates":[31.1970796,30.050249]},"properties":{"osm_id":6771440214,"addr:housenumber":"28","addr:street":"شارع دجله","addr:country":"EG","addr:district":"العجوزه","addr:district:en":"Al Agouza","addr:postcode":"12655","addr:province":"الجيزه","addr:province:en":"Giza","addr:street:en":"Degla Street","addr:subdistrict":"المهندسين","addr:subdistrict:en":"Al Mohandessin"}},
{"type":"Feature","geometry":{"type":"Point","coordinates":[31.1972022,30.0525607]},"properties":{"osm_id":6771440226,"addr:housenumber":"22","addr:street":"شارع سوريا","addr:country":"EG","addr:district":"العجوزه","addr:district:en":"Al Agouza","addr:postcode":"12655","addr:province":"الجيزه","addr:province:en":"Giza","addr:street:en":"Surya Street","addr:subdistrict":"المهندسين","addr:subdistrict:en":"Al Mohandessin"}},
{"type":"Feature","geometry":{"type":"Point","coordinates":[31.1969663,30.0513613]},"properties":{"osm_id":6771440234,"addr:housenumber":"7","addr:street":"شارع احمد البرعى","addr:country":"EG","addr:district":"العجوزه","addr:district:en":"Al Agouza","addr:postcode":"12655","addr:province":"الجيزه","addr:province:en":"Giza","addr:street:en":"Ahmed Al Borei Street","addr:subdistrict":"المهندسين","addr:subdistrict:en":"Al Mohandessin"}},
{"type":"Feature","geometry":{"type":"Point","coordinates":[31.1964125,30.0520914]},"properties":{"osm_id":6771440236,"addr:housenumber":"34","addr:street":"شارع عدن","addr:country":"EG","addr:district":"العجوزه","addr:district:en":"Al Agouza","addr:postcode":"12655","addr:province":"الجيزه","addr:province:en":"Giza","addr:street:en":"Adan Street","addr:subdistrict":"المهندسين","addr:subdistrict:en":"Al Mohandessin"}},
{"type":"Feature","geometry":{"type":"Point","coordinates":[31.1995323,30.0522494]},"properties":{"osm_id":6771440237,"addr:housenumber":"5","addr:street":"شارع حلمى محمد حسن","addr:country":"EG","addr:district":"العجوزه","addr:district:en":"Al Agouza","addr:postcode":"12655","addr:province":"الجيزه","addr:province:en":"Giza","addr:street:en":"Helmy Mohamed Hassn Street","addr:subdistrict":"المهندسين","addr:subdistrict:en":"Al Mohandessin"}},
{"type":"Feature","geometry":{"type":"Point","coordinates":[31.1963632,30.0510658]},"properties":{"osm_id":6771440241,"addr:housenumber":"28","addr:street":"شارع العراق","addr:country":"EG","addr:district":"العجوزه","addr:district:en":"Al Agouza","addr:postcode":"12655","addr:province":"الجيزه","addr:province:en":"Giza","addr:street:en":"Iraq Street","addr:subdistrict":"المهندسين","addr:subdistrict:en":"Al Mohandessin"}},
{"type":"Feature","geometry":{"type":"Point","coordinates":[31.1968712,30.0504293]},"properties":{"osm_id":6771440247,"addr:housenumber":"13","addr:street":"شارع رامز","addr:country":"EG","addr:district":"العجوزه","addr:district:en":"Al Agouza","addr:postcode":"12655","addr:province":"الجيزه","addr:province:en":"Giza","addr:street:en":"Ramez Street","addr:subdistrict":"المهندسين","addr:subdistrict:en":"Al Mohandessin"}},
{"type":"Feature","geometry":{"type":"Point","coordinates":[31.1961821,30.0515064]},"properties":{"osm_id":6771440261,"addr:housenumber":"3","addr:street":"شارع رامز","addr:country":"EG","addr:district":"العجوزه","addr:district:en":"Al Agouza","addr:postcode":"12655","addr:province":"الجيزه","addr:province:en":"Giza","addr:street:en":"Ramez Street","addr:subdistrict":"المهندسين","addr:subdistrict:en":"Al Mohandessin"}},
{"type":"Feature","geometry":{"type":"Point","coordinates":[31.1982109,30.0526858]},"properties":{"osm_id":6771440280,"addr:housenumber":"14","addr:street":"شارع سوريا","addr:country":"EG","addr:district":"العجوزه","addr:district:en":"Al Agouza","addr:postcode":"12655","addr:province":"الجيزه","addr:province:en":"Giza","addr:street:en":"Surya Street","addr:subdistrict":"المهندسين","addr:subdistrict:en":"Al Mohandessin"}},
{"type":"Feature","geometry":{"type":"Point","coordinates":[31.1956948,30.0520662]},"properties":{"osm_id":6771440284,"addr:housenumber":"21","addr:street":"شارع شهاب","addr:country":"EG","addr:district":"العجوزه","addr:district:en":"Al Agouza","addr:postcode":"12655","addr:province":"الجيزه","addr:province:en":"Giza","addr:street:en":"Shehab Street","addr:subdistrict":"المهندسين","addr:subdistrict:en":"Al Mohandessin"}},
{"type":"Feature","geometry":{"type":"Point","coordinates":[31.1979492,30.0506174]},"properties":{"osm_id":6771440290,"addr:housenumber":"37","addr:street":"شارع دجله","addr:country":"EG","addr:district":"العجوزه","addr:district:en":"Al Agouza","addr:postcode":"12655","addr:province":"الجيزه","addr:province:en":"Giza","addr:street:en":"Degla Street","addr:subdistrict":"المهندسين","addr:subdistrict:en":"Al Mohandessin"}},
{"type":"Feature","geometry":{"type":"Point","coordinates":[31.1970907,30.0521571]},"properties":{"osm_id":6771440298,"addr:housenumber":"40","addr:street":"شارع عدن","addr:country":"EG","addr:district":"العجوزه","addr:district:en":"Al Agouza","addr:postcode":"12655","addr:province":"الجيزه","addr:province:en":"Giza","addr:street:en":"Adan Street","addr:subdistrict":"المهندسين","addr:subdistrict:en":"Al Mohandessin"}},
{"type":"Feature","geometry":{"type":"Point","coordinates":[31.1965262,30.0515925]},"properties":{"osm_id":6771440307,"addr:housenumber":"4","addr:street":"شارع رامز","addr:country":"EG","addr:district":"العجوزه","addr:district:en":"Al Agouza","addr:postcode":"12655","addr:province":"الجيزه","addr:province:en":"Giza","addr:street:en":"Ramez Street","addr:subdistrict":"المهندسين","addr:subdistrict:en":"Al Mohandessin"}},
{"type":"Feature","geometry":{"type":"Point","coordinates":[31.1972844,30.051067]},"properties":{"osm_id":6771440311,"addr:housenumber":"37","addr:street":"شارع العراق","addr:country":"EG","addr:district":"العجوزه","addr:district:en":"Al Agouza","addr:postcode":"12655","addr:province":"الجيزه","addr:province:en":"Giza","addr:street:en":"Iraq Street","addr:subdistrict":"المهندسين","addr:subdistrict:en":"Al Mohandessin"}},
{"type":"Feature","geometry":{"type":"Point","coordinates":[31.1966073,30.0502409]},"properties":{"osm_id":6771440317,"addr:housenumber":"9","addr:street":"شارع شهاب","addr:country":"EG","addr:district":"العجوزه","addr:district:en":"Al Agouza","addr:postcode":"12655","addr:province":"الجيزه","addr:province:en":"Giza","addr:street:en":"Shehab Street","addr:subdistrict":"المهندسين","addr:subdistrict:en":"Al Mohandessin"}},
{"type":"Feature","geometry":{"type":"Point","coordinates":[31.1988033,30.0513246]},"properties":{"osm_id":6771440322,"addr:housenumber":"3","addr:street":"شارع الحجاز","addr:country":"EG","addr:district":"العجوزه","addr:district:en":"Al Agouza","addr:postcode":"12655","addr:province":"الجيزه","addr:province:en":"Giza","addr:street:en":"Al Hegaz Street","addr:subdistrict":"المهندسين","addr:subdistrict:en":"Al Mohandessin"}},
{"type":"Feature","geometry":{"type":"Point","coordinates":[31.2001496,30.0528823]},"properties":{"osm_id":6771440334,"addr:housenumber":"6","addr:street":"شارع سوريا","addr:country":"EG","addr:district":"العجوزه","addr:district:en":"Al Agouza","addr:postcode":"12655","addr:province":"الجيزه","addr:province:en":"Giza","addr:street:en":"Surya Street","addr:subdistrict":"المهندسين","addr:subdistrict:en":"Al Mohandessin"}},
{"type":"Feature","geometry":{"type":"Point","coordinates":[31.1995774,30.0528695]},"properties":{"osm_id":6771440346,"addr:housenumber":"12","addr:street":"شارع قناه السويس","addr:country":"EG","addr:district":"العجوزه","addr:district:en":"Al Agouza","addr:postcode":"12655","addr:province":"الجيزه","addr:province:en":"Giza","addr:street:en":"Qanah Al Suez Street","addr:subdistrict":"المهندسين","addr:subdistrict:en":"Al Mohandessin"}},
{"type":"Feature","geometry":{"type":"Point","coordinates":[31.1987458,30.0522695]},"properties":{"osm_id":6771440347,"addr:housenumber":"8","addr:street":"شارع حلمى محمد حسن","addr:country":"EG","addr:district":"العجوزه","addr:district:en":"Al Agouza","addr:postcode":"12655","addr:province":"الجيزه","addr:province:en":"Giza","addr:street:en":"Helmy Mohamed Hassn Street","addr:subdistrict":"المهندسين","addr:subdistrict:en":"Al Mohandessin"}},
{"type":"Feature","geometry":{"type":"Point","coordinates":[31.1973285,30.050533]},"properties":{"osm_id":6771440354,"addr:housenumber":"30","addr:street":"شارع دجله","addr:country":"EG","addr:district":"العجوزه","addr:district:en":"Al Agouza","addr:postcode":"12655","addr:province":"الجيزه","addr:province:en":"Giza","addr:street:en":"Degla Street","addr:subdistrict":"المهندسين","addr:subdistrict:en":"Al Mohandessin"}},
{"type":"Feature","geometry":{"type":"Point","coordinates":[31.1959389,30.051188]},"properties":{"osm_id":6771440355,"addr:housenumber":"17","addr:street":"شارع شهاب","addr:country":"EG","addr:district":"العجوزه","addr:district:en":"Al Agouza","addr:postcode":"12655","addr:province":"الجيزه","addr:province:en":"Giza","addr:street:en":"Shehab Street","addr:subdistrict":"المهندسين","addr:subdistrict:en":"Al Mohandessin"}},
{"type":"Feature","geometry":{"type":"Point","coordinates":[31.1992813,30.0528175]},"properties":{"osm_id":6771440356,"addr:housenumber":"11","addr:street":"شارع حلمى محمد حسن","addr:country":"EG","addr:district":"العجوزه","addr:district:en":"Al Agouza","addr:postcode":"12655","addr:province":"الجيزه","addr:province:en":"Giza","addr:street:en":"Helmy Mohamed Hassn Street","addr:subdistrict":"المهندسين","addr:subdistrict:en":"Al Mohandessin"}},
{"type":"Feature","geometry":{"type":"Point","coordinates":[31.1968646,30.0521352]},"properties":{"osm_id":6771440357,"addr:housenumber":"38","addr:street":"شارع عدن","addr:country":"EG","addr:district":"العجوزه","addr:district:en":"Al Agouza","addr:postcode":"12655","addr:province":"الجيزه","addr:province:en":"Giza","addr:street:en":"Adan Street","addr:subdistrict":"المهندسين","addr:subdistrict:en":"Al Mohandessin"}},
{"type":"Feature","geometry":{"type":"Point","coordinates":[31.1967206,30.0512584]},"properties":{"osm_id":6771440371,"addr:housenumber":"30","addr:street":"شارع العراق","addr:country":"EG","addr:district":"العجوزه","addr:district:en":"Al Agouza","addr:postcode":"12655","addr:province":"الجيزه","addr:province:en":"Giza","addr:street:en":"Iraq Street","addr:subdistrict":"المهندسين","addr:subdistrict:en":"Al Mohandessin"}},
{"type":"Feature","geometry":{"type":"Point","coordinates":[31.1962969,30.0512913]},"properties":{"osm_id":6771440398,"addr:housenumber":"5","addr:street":"شارع رامز","addr:country":"EG","addr:district":"العجوزه","addr:district:en":"Al Agouza","addr:postcode":"12655","addr:province":"الجيزه","addr:province:en":"Giza","addr:street:en":"Ramez Street","addr:subdistrict":"المهندسين","addr:subdistrict:en":"Al Mohandessin"}},
{"type":"Feature","geometry":{"type":"Point","coordinates":[31.1975623,30.0495264]},"properties":{"osm_id":6771440403,"addr:housenumber":"45","addr:street":"شارع جامعه الدول العربيه","addr:country":"EG","addr:district":"العجوزه","addr:district:en":"Al Agouza","addr:postcode":"12655","addr:province":"الجيزه","addr:province:en":"Giza","addr:street:en":"Gamaa Al Doul Al Arabiya Street","addr:subdistrict":"المهندسين","addr:subdistrict:en":"Al Mohandessin"}},
{"type":"Feature","geometry":{"type":"Point","coordinates":[31.1976719,30.0503346]},"properties":{"osm_id":6771440404,"addr:housenumber":"33","addr:street":"شارع دجله","addr:country":"EG","addr:district":"العجوزه","addr:district:en":"Al Agouza","addr:postcode":"12655","addr:province":"الجيزه","addr:province:en":"Giza","addr:street:en":"Degla Street","addr:subdistrict":"المهندسين","addr:subdistrict:en":"Al Mohandessin"}},
{"type":"Feature","geometry":{"type":"Point","coordinates":[31.1998657,30.0522549]},"properties":{"osm_id":6771440405,"addr:housenumber":"4","addr:street":"شارع قناه السويس","addr:country":"EG","addr:district":"العجوزه","addr:district:en":"Al Agouza","addr:postcode":"12655","addr:province":"الجيزه","addr:province:en":"Giza","addr:street:en":"Qanah Al Suez Street","addr:subdistrict":"المهندسين","addr:subdistrict:en":"Al Mohandessin"}},
{"type":"Feature","geometry":{"type":"Point","coordinates":[31.1971566,30.0498304]},"properties":{"osm_id":6771440406,"addr:housenumber":"5","addr:street":"شارع شهاب","addr:country":"EG","addr:district":"العجوزه","addr:district:en":"Al Agouza","addr:postcode":"12655","addr:province":"الجيزه","addr:province:en":"Giza","addr:street:en":"Shehab Street","addr:subdistrict":"المهندسين","addr:subdistrict:en":"Al Mohandessin"}},
{"type":"Feature","geometry":{"type":"Point","coordinates":[31.1969739,30.0509831]},"properties":{"osm_id":6771440408,"addr:housenumber":"35","addr:street":"شارع العراق","addr:country":"EG","addr:district":"العجوزه","addr:district:en":"Al Agouza","addr:postcode":"12655","addr:province":"الجيزه","addr:province:en":"Giza","addr:street:en":"Iraq Street","addr:subdistrict":"المهندسين","addr:subdistrict:en":"Al Mohandessin"}},
{"type":"Feature","geometry":{"type":"Point","coordinates":[31.1963935,30.0524911]},"properties":{"osm_id":6771440416,"addr:housenumber":"28","addr:street":"شارع سوريا","addr:country":"EG","addr:district":"العجوزه","addr:district:en":"Al Agouza","addr:postcode":"12655","addr:province":"الجيزه","addr:province:en":"Giza","addr:street:en":"Surya Street","addr:subdistrict":"المهندسين","addr:subdistrict:en":"Al Mohandessin"}},
{"type":"Feature","geometry":{"type":"Point","coordinates":[31.1971288,30.0516618]},"properties":{"osm_id":6771440425,"addr:housenumber":"4","addr:street":"شارع احمد البرعى","addr:country":"EG","addr:district":"العجوزه","addr:district:en":"Al Agouza","addr:postcode":"12655","addr:province":"الجيزه","addr:province:en":"Giza","addr:street:en":"Ahmed Al Borei Street","addr:subdistrict":"المهندسين","addr:subdistrict:en":"Al Mohandessin"}},
{"type":"Feature","geometry":{"type":"Point","coordinates":[31.1960719,30.0509464]},"properties":{"osm_id":6771440429,"addr:housenumber":"18","addr:street":"شارع شهاب","addr:country":"EG","addr:district":"العجوزه","addr:district:en":"Al Agouza","addr:postcode":"12655","addr:province":"الجيزه","addr:province:en":"Giza","addr:street:en":"Shehab Street","addr:subdistrict":"المهندسين","addr:subdistrict:en":"Al Mohandessin"}},
{"type":"Feature","geometry":{"type":"Point","coordinates":[31.1982618,30.0522166]},"properties":{"osm_id":6771440432,"addr:housenumber":"11","addr:street":"شارع الحجاز","addr:country":"EG","addr:district":"العجوزه","addr:district:en":"Al Agouza","addr:postcode":"12655","addr:province":"الجيزه","addr:province:en":"Giza","addr:street:en":"Al Hegaz Street","addr:subdistrict":"المهندسين","addr:subdistrict:en":"Al Mohandessin"}},
{"type":"Feature","geometry":{"type":"Point","coordinates":[31.1977251,30.0498038]},"properties":{"osm_id":6771440433,"addr:housenumber":"7","addr:street":"شارع جامعه الدول العربيه","addr:country":"EG","addr:district":"العجوزه","addr:district:en":"Al Agouza","addr:postcode":"12655","addr:province":"الجيزه","addr:province:en":"Giza","addr:street:en":"Gamaa Al Doul Al Arabiya Street","addr:subdistrict":"المهندسين","addr:subdistrict:en":"Al Mohandessin"}},
{"type":"Feature","geometry":{"type":"Point","coordinates":[31.1974853,30.0511937]},"properties":{"osm_id":6771440438,"addr:housenumber":"39","addr:street":"شارع العراق","addr:country":"EG","addr:district":"العجوزه","addr:district:en":"Al Agouza","addr:postcode":"12655","addr:province":"الجيزه","addr:province:en":"Giza","addr:street:en":"Iraq Street","addr:subdistrict":"المهندسين","addr:subdistrict:en":"Al Mohandessin"}},
{"type":"Feature","geometry":{"type":"Point","coordinates":[31.1999892,30.0526001]},"properties":{"osm_id":6771440441,"addr:housenumber":"5","addr:street":"شارع قناه السويس","addr:country":"EG","addr:district":"العجوزه","addr:district:en":"Al Agouza","addr:postcode":"12655","addr:province":"الجيزه","addr:province:en":"Giza","addr:street:en":"Qanah Al Suez Street","addr:subdistrict":"المهندسين","addr:subdistrict:en":"Al Mohandessin"}},
{"type":"Feature","geometry":{"type":"Point","coordinates":[31.1997035,30.0525422]},"properties":{"osm_id":6771440445,"addr:housenumber":"8","addr:street":"شارع قناه السويس","addr:country":"EG","addr:district":"العجوزه","addr:district:en":"Al Agouza","addr:postcode":"12655","addr:province":"الجيزه","addr:province:en":"Giza","addr:street:en":"Qanah Al Suez Street","addr:subdistrict":"المهندسين","addr:subdistrict:en":"Al Mohandessin"}},
{"type":"Feature","geometry":{"type":"Point","coordinates":[31.1999372,30.0527465]},"properties":{"osm_id":6771440450,"addr:housenumber":"7","addr:street":"شارع قناه السويس","addr:country":"EG","addr:district":"العجوزه","addr:district:en":"Al Agouza","addr:postcode":"12655","addr:province":"الجيزه","addr:province:en":"Giza","addr:street:en":"Qanah Al Suez Street","addr:subdistrict":"المهندسين","addr:subdistrict:en":"Al Mohandessin"}},
{"type":"Feature","geometry":{"type":"Point","coordinates":[31.1965983,30.0507851]},"properties":{"osm_id":6771440451,"addr:housenumber":"33","addr:street":"شارع العراق","addr:country":"EG","addr:district":"العجوزه","addr:district:en":"Al Agouza","addr:postcode":"12655","addr:province":"الجيزه","addr:province:en":"Giza","addr:street:en":"Iraq Street","addr:subdistrict":"المهندسين","addr:subdistrict:en":"Al Mohandessin"}},
{"type":"Feature","geometry":{"type":"Point","coordinates":[31.1983533,30.0519511]},"properties":{"osm_id":6771440462,"addr:housenumber":"9","addr:street":"شارع الحجاز","addr:country":"EG","addr:district":"العجوزه","addr:district:en":"Al Agouza","addr:postcode":"12655","addr:province":"الجيزه","addr:province:en":"Giza","addr:street:en":"Al Hegaz Street","addr:subdistrict":"المهندسين","addr:subdistrict:en":"Al Mohandessin"}},
{"type":"Feature","geometry":{"type":"Point","coordinates":[31.1970884,30.0518399]},"properties":{"osm_id":6771440464,"addr:housenumber":"31","addr:street":"شارع عدن","addr:country":"EG","addr:district":"العجوزه","addr:district:en":"Al Agouza","addr:postcode":"12655","addr:province":"الجيزه","addr:province:en":"Giza","addr:street:en":"Adan Street","addr:subdistrict":"المهندسين","addr:subdistrict:en":"Al Mohandessin"}},
{"type":"Feature","geometry":{"type":"Point","coordinates":[31.1982814,30.0503256]},"properties":{"osm_id":6771440470,"addr:housenumber":"18A","addr:street":"شارع جامعه الدول العربيه","addr:country":"EG","addr:district":"العجوزه","addr:district:en":"Al Agouza","addr:postcode":"12655","addr:province":"الجيزه","addr:province:en":"Giza","addr:street:en":"Gamaa Al Doul Al Arabiya Street","addr:subdistrict":"المهندسين","addr:subdistrict:en":"Al Mohandessin"}},
{"type":"Feature","geometry":{"type":"Point","coordinates":[31.1966631,30.0525143]},"properties":{"osm_id":6771440473,"addr:housenumber":"26","addr:street":"شارع سوريا","addr:country":"EG","addr:district":"العجوزه","addr:district:en":"Al Agouza","addr:postcode":"12655","addr:province":"الجيزه","addr:province:en":"Giza","addr:street:en":"Surya Street","addr:subdistrict":"المهندسين","addr:subdistrict:en":"Al Mohandessin"}},
{"type":"Feature","geometry":{"type":"Point","coordinates":[31.1967416,30.0505973]},"properties":{"osm_id":6771440477,"addr:housenumber":"11","addr:street":"شارع رامز","addr:country":"EG","addr:district":"العجوزه","addr:district:en":"Al Agouza","addr:postcode":"12655","addr:province":"الجيزه","addr:province:en":"Giza","addr:street:en":"Ramez Street","addr:subdistrict":"المهندسين","addr:subdistrict:en":"Al Mohandessin"}},
{"type":"Feature","geometry":{"type":"Point","coordinates":[31.2001925,30.052297]},"properties":{"osm_id":6771440480,"addr:housenumber":"23`","addr:street":"شارع جامعه الدول العربيه","addr:country":"EG","addr:district":"العجوزه","addr:district:en":"Al Agouza","addr:postcode":"12655","addr:province":"الجيزه","addr:province:en":"Giza","addr:street:en":"Gamaa Al Doul Al Arabiya Street","addr:subdistrict":"المهندسين","addr:subdistrict:en":"Al Mohandessin"}},
{"type":"Feature","geometry":{"type":"Point","coordinates":[31.19861,30.0506434]},"properties":{"osm_id":6771440483,"addr:housenumber":"39","addr:street":"شارع جامعه الدول العربيه","addr:country":"EG","addr:district":"العجوزه","addr:district:en":"Al Agouza","addr:postcode":"12655","addr:province":"الجيزه","addr:province:en":"Giza","addr:street:en":"Gamaa Al Doul Al Arabiya Street","addr:subdistrict":"المهندسين","addr:subdistrict:en":"Al Mohandessin"}},
{"type":"Feature","geometry":{"type":"Point","coordinates":[31.1989487,30.0518743]},"properties":{"osm_id":6771440484,"addr:housenumber":"4","addr:street":"شارع حلمى محمد حسن","addr:country":"EG","addr:district":"العجوزه","addr:district:en":"Al Agouza","addr:postcode":"12655","addr:province":"الجيزه","addr:province:en":"Giza","addr:street:en":"Helmy Mohamed Hassn Street","addr:subdistrict":"المهندسين","addr:subdistrict:en":"Al Mohandessin"}},
{"type":"Feature","geometry":{"type":"Point","coordinates":[31.1975396,30.0507738]},"properties":{"osm_id":6771440486,"addr:housenumber":"32","addr:street":"شارع دجله","addr:country":"EG","addr:district":"العجوزه","addr:district:en":"Al Agouza","addr:postcode":"12655","addr:province":"الجيزه","addr:province:en":"Giza","addr:street:en":"Degla Street","addr:subdistrict":"المهندسين","addr:subdistrict:en":"Al Mohandessin"}},
{"type":"Feature","geometry":{"type":"Point","coordinates":[31.1982203,30.0524433]},"properties":{"osm_id":6771440488,"addr:housenumber":"13","addr:street":"شارع الحجاز","addr:country":"EG","addr:district":"العجوزه","addr:district:en":"Al Agouza","addr:postcode":"12655","addr:province":"الجيزه","addr:province:en":"Giza","addr:street:en":"Al Hegaz Street","addr:subdistrict":"المهندسين","addr:subdistrict:en":"Al Mohandessin"}},
{"type":"Feature","geometry":{"type":"Point","coordinates":[31.1982086,30.0508924]},"properties":{"osm_id":6771440495,"addr:housenumber":"41","addr:street":"شارع دجله","addr:country":"EG","addr:district":"العجوزه","addr:district:en":"Al Agouza","addr:postcode":"12655","addr:province":"الجيزه","addr:province:en":"Giza","addr:street:en":"Degla Street","addr:subdistrict":"المهندسين","addr:subdistrict:en":"Al Mohandessin"}},
{"type":"Feature","geometry":{"type":"Point","coordinates":[31.2003164,30.0525246]},"properties":{"osm_id":6771440501,"addr:housenumber":"23","addr:street":"شارع جامعه الدول العربيه","addr:country":"EG","addr:district":"العجوزه","addr:district:en":"Al Agouza","addr:postcode":"12655","addr:province":"الجيزه","addr:province:en":"Giza","addr:street:en":"Gamaa Al Doul Al Arabiya Street","addr:subdistrict":"المهندسين","addr:subdistrict:en":"Al Mohandessin"}},
{"type":"Feature","geometry":{"type":"Point","coordinates":[31.1971987,30.0506797]},"properties":{"osm_id":6771440517,"addr:housenumber":"14","addr:street":"شارع رامز","addr:country":"EG","addr:district":"العجوزه","addr:district:en":"Al Agouza","addr:postcode":"12655","addr:province":"الجيزه","addr:province:en":"Giza","addr:street:en":"Ramez Street","addr:subdistrict":"المهندسين","addr:subdistrict:en":"Al Mohandessin"}},
{"type":"Feature","geometry":{"type":"Point","coordinates":[31.1991026,30.0516667]},"properties":{"osm_id":6771440521,"addr:housenumber":"2","addr:street":"شارع حلمى محمد حسن","addr:country":"EG","addr:district":"العجوزه","addr:district:en":"Al Agouza","addr:postcode":"12655","addr:province":"الجيزه","addr:province:en":"Giza","addr:street:en":"Helmy Mohamed Hassn Street","addr:subdistrict":"المهندسين","addr:subdistrict:en":"Al Mohandessin"}},
{"type":"Feature","geometry":{"type":"Point","coordinates":[31.1980414,30.049884]},"properties":{"osm_id":6771440522,"addr:housenumber":"5`","addr:street":"شارع جامعه الدول العربيه","addr:country":"EG","addr:district":"العجوزه","addr:district:en":"Al Agouza","addr:postcode":"12655","addr:province":"الجيزه","addr:province:en":"Giza","addr:street:en":"Gamaa Al Doul Al Arabiya Street","addr:subdistrict":"المهندسين","addr:subdistrict:en":"Al Mohandessin"}},
{"type":"Feature","geometry":{"type":"Point","coordinates":[31.1996568,30.0520811]},"properties":{"osm_id":6771440523,"addr:housenumber":"3","addr:street":"شارع حلمى محمد حسن","addr:country":"EG","addr:district":"العجوزه","addr:district:en":"Al Agouza","addr:postcode":"12655","addr:province":"الجيزه","addr:province:en":"Giza","addr:street:en":"Helmy Mohamed Hassn Street","addr:subdistrict":"المهندسين","addr:subdistrict:en":"Al Mohandessin"}},
{"type":"Feature","geometry":{"type":"Point","coordinates":[31.1964182,30.0504269]},"properties":{"osm_id":6771440524,"addr:housenumber":"11","addr:street":"شارع شهاب","addr:country":"EG","addr:district":"العجوزه","addr:district:en":"Al Agouza","addr:postcode":"12655","addr:province":"الجيزه","addr:province:en":"Giza","addr:street:en":"Shehab Street","addr:subdistrict":"المهندسين","addr:subdistrict:en":"Al Mohandessin"}},
{"type":"Feature","geometry":{"type":"Point","coordinates":[31.1958544,30.0524446]},"properties":{"osm_id":6771440534,"addr:housenumber":"32","addr:street":"شارع سوريا","addr:country":"EG","addr:district":"العجوزه","addr:district:en":"Al Agouza","addr:postcode":"12655","addr:province":"الجيزه","addr:province:en":"Giza","addr:street:en":"Surya Street","addr:subdistrict":"المهندسين","addr:subdistrict:en":"Al Mohandessin"}},
{"type":"Feature","geometry":{"type":"Point","coordinates":[31.1984709,30.051727]},"properties":{"osm_id":6771440539,"addr:housenumber":"7","addr:street":"شارع الحجاز","addr:country":"EG","addr:district":"العجوزه","addr:district:en":"Al Agouza","addr:postcode":"12655","addr:province":"الجيزه","addr:province:en":"Giza","addr:street:en":"Al Hegaz Street","addr:subdistrict":"المهندسين","addr:subdistrict:en":"Al Mohandessin"}},
{"type":"Feature","geometry":{"type":"Point","coordinates":[31.1974698,30.050226]},"properties":{"osm_id":6771440550,"addr:housenumber":"31","addr:street":"شارع دجله","addr:country":"EG","addr:district":"العجوزه","addr:district:en":"Al Agouza","addr:postcode":"12655","addr:province":"الجيزه","addr:province:en":"Giza","addr:street:en":"Degla Street","addr:subdistrict":"المهندسين","addr:subdistrict:en":"Al Mohandessin"}},
{"type":"Feature","geometry":{"type":"Point","coordinates":[31.1997824,30.0523908]},"properties":{"osm_id":6771440563,"addr:housenumber":"6","addr:street":"شارع قناه السويس","addr:country":"EG","addr:district":"العجوزه","addr:district:en":"Al Agouza","addr:postcode":"12655","addr:province":"الجيزه","addr:province:en":"Giza","addr:street:en":"Qanah Al Suez Street","addr:subdistrict":"المهندسين","addr:subdistrict:en":"Al Mohandessin"}},
{"type":"Feature","geometry":{"type":"Point","coordinates":[31.1990595,30.0511214]},"properties":{"osm_id":6771440564,"addr:housenumber":"1","addr:street":"شارع الحجاز","addr:country":"EG","addr:district":"العجوزه","addr:district:en":"Al Agouza","addr:postcode":"12655","addr:province":"الجيزه","addr:province:en":"Giza","addr:street:en":"Al Hegaz Street","addr:subdistrict":"المهندسين","addr:subdistrict:en":"Al Mohandessin"}},
{"type":"Feature","geometry":{"type":"Point","coordinates":[31.1964792,30.0517698]},"properties":{"osm_id":6771440568,"addr:housenumber":"2","addr:street":"شارع رامز","addr:country":"EG","addr:district":"العجوزه","addr:district:en":"Al Agouza","addr:postcode":"12655","addr:province":"الجيزه","addr:province:en":"Giza","addr:street:en":"Ramez Street","addr:subdistrict":"المهندسين","addr:subdistrict:en":"Al Mohandessin"}},
{"type":"Feature","geometry":{"type":"Point","coordinates":[31.1959603,30.0520476]},"properties":{"osm_id":6771440584,"addr:housenumber":"30","addr:street":"شارع عدن","addr:country":"EG","addr:district":"العجوزه","addr:district:en":"Al Agouza","addr:postcode":"12655","addr:province":"الجيزه","addr:province:en":"Giza","addr:street:en":"Adan Street","addr:subdistrict":"المهندسين","addr:subdistrict:en":"Al Mohandessin"}},
{"type":"Feature","geometry":{"type":"Point","coordinates":[31.196124,30.0524678]},"properties":{"osm_id":6771440596,"addr:housenumber":"30","addr:street":"شارع سوريا","addr:country":"EG","addr:district":"العجوزه","addr:district:en":"Al Agouza","addr:postcode":"12655","addr:province":"الجيزه","addr:province:en":"Giza","addr:street:en":"Surya Street","addr:subdistrict":"المهندسين","addr:subdistrict:en":"Al Mohandessin"}},
{"type":"Feature","geometry":{"type":"Point","coordinates":[31.1992474,30.0512881]},"properties":{"osm_id":6771440600,"addr:housenumber":"33","addr:street":"شارع جامعه الدول العربيه","addr:country":"EG","addr:district":"العجوزه","addr:district:en":"Al Agouza","addr:postcode":"12655","addr:province":"الجيزه","addr:province:en":"Giza","addr:street:en":"Gamaa Al Doul Al Arabiya Street","addr:subdistrict":"المهندسين","addr:subdistrict:en":"Al Mohandessin"}},
{"type":"Feature","geometry":{"type":"Point","coordinates":[31.1973168,30.052179]},"properties":{"osm_id":6771440605,"addr:housenumber":"42","addr:street":"شارع عدن","addr:country":"EG","addr:district":"العجوزه","addr:district:en":"Al Agouza","addr:postcode":"12655","addr:province":"الجيزه","addr:province:en":"Giza","addr:street:en":"Adan Street","addr:subdistrict":"المهندسين","addr:subdistrict:en":"Al Mohandessin"}},
{"type":"Feature","geometry":{"type":"Point","coordinates":[31.1973023,30.0518342]},"properties":{"osm_id":6771440606,"addr:housenumber":"33","addr:street":"شارع عدن","addr:country":"EG","addr:district":"العجوزه","addr:district:en":"Al Agouza","addr:postcode":"12655","addr:province":"الجيزه","addr:province:en":"Giza","addr:street:en":"Adan Street","addr:subdistrict":"المهندسين","addr:subdistrict:en":"Al Mohandessin"}},
{"type":"Feature","geometry":{"type":"Point","coordinates":[31.1962971,30.0506233]},"properties":{"osm_id":6771440608,"addr:housenumber":"13","addr:street":"شارع شهاب","addr:country":"EG","addr:district":"العجوزه","addr:district:en":"Al Agouza","addr:postcode":"12655","addr:province":"الجيزه","addr:province:en":"Giza","addr:street:en":"Shehab Street","addr:subdistrict":"المهندسين","addr:subdistrict:en":"Al Mohandessin"}},
{"type":"Feature","geometry":{"type":"Point","coordinates":[31.1993564,30.0525847]},"properties":{"osm_id":6771440623,"addr:housenumber":"9","addr:street":"شارع حلمى محمد حسن","addr:country":"EG","addr:district":"العجوزه","addr:district:en":"Al Agouza","addr:postcode":"12655","addr:province":"الجيزه","addr:province:en":"Giza","addr:street:en":"Helmy Mohamed Hassn Street","addr:subdistrict":"المهندسين","addr:subdistrict:en":"Al Mohandessin"}},
{"type":"Feature","geometry":{"type":"Point","coordinates":[31.1986667,30.0525244]},"properties":{"osm_id":6771440624,"addr:housenumber":"10","addr:street":"شارع حلمى محمد حسن","addr:country":"EG","addr:district":"العجوزه","addr:district:en":"Al Agouza","addr:postcode":"12655","addr:province":"الجيزه","addr:province:en":"Giza","addr:street:en":"Helmy Mohamed Hassn Street","addr:subdistrict":"المهندسين","addr:subdistrict:en":"Al Mohandessin"}},
{"type":"Feature","geometry":{"type":"Point","coordinates":[31.1975142,30.051878]},"properties":{"osm_id":6771440631,"addr:housenumber":"35","addr:street":"شارع عدن","addr:country":"EG","addr:district":"العجوزه","addr:district:en":"Al Agouza","addr:postcode":"12655","addr:province":"الجيزه","addr:province:en":"Giza","addr:street:en":"Adan Street","addr:subdistrict":"المهندسين","addr:subdistrict:en":"Al Mohandessin"}},
{"type":"Feature","geometry":{"type":"Point","coordinates":[31.1999776,30.0521037]},"properties":{"osm_id":6771440633,"addr:housenumber":"2","addr:street":"شارع قناه السويس","addr:country":"EG","addr:district":"العجوزه","addr:district:en":"Al Agouza","addr:postcode":"12655","addr:province":"الجيزه","addr:province:en":"Giza","addr:street:en":"Qanah Al Suez Street","addr:subdistrict":"المهندسين","addr:subdistrict:en":"Al Mohandessin"}},
{"type":"Feature","geometry":{"type":"Point","coordinates":[31.1970648,30.0508176]},"properties":{"osm_id":6771440634,"addr:housenumber":"12","addr:street":"شارع رامز","addr:country":"EG","addr:district":"العجوزه","addr:district:en":"Al Agouza","addr:postcode":"12655","addr:province":"الجيزه","addr:province:en":"Giza","addr:street:en":"Ramez Street","addr:subdistrict":"المهندسين","addr:subdistrict:en":"Al Mohandessin"}},
{"type":"Feature","geometry":{"type":"Point","coordinates":[31.1974718,30.0525839]},"properties":{"osm_id":6771440690,"addr:housenumber":"20","addr:street":"شارع سوريا","addr:country":"EG","addr:district":"العجوزه","addr:district:en":"Al Agouza","addr:postcode":"12655","addr:province":"الجيزه","addr:province:en":"Giza","addr:street:en":"Surya Street","addr:subdistrict":"المهندسين","addr:subdistrict:en":"Al Mohandessin"}},
{"type":"Feature","geometry":{"type":"Point","coordinates":[31.1994399,30.0524049]},"properties":{"osm_id":6771440697,"addr:housenumber":"7","addr:street":"شارع حلمى محمد حسن","addr:country":"EG","addr:district":"العجوزه","addr:district:en":"Al Agouza","addr:postcode":"12655","addr:province":"الجيزه","addr:province:en":"Giza","addr:street:en":"Helmy Mohamed Hassn Street","addr:subdistrict":"المهندسين","addr:subdistrict:en":"Al Mohandessin"}},
{"type":"Feature","geometry":{"type":"Point","coordinates":[31.1977413,30.0526071]},"properties":{"osm_id":6771440699,"addr:housenumber":"18","addr:street":"شارع سوريا","addr:country":"EG","addr:district":"العجوزه","addr:district:en":"Al Agouza","addr:postcode":"12655","addr:province":"الجيزه","addr:province:en":"Giza","addr:street:en":"Surya Street","addr:subdistrict":"المهندسين","addr:subdistrict:en":"Al Mohandessin"}},
{"type":"Feature","geometry":{"type":"Point","coordinates":[31.1974822,30.0500242]},"properties":{"osm_id":6771440700,"addr:housenumber":"29","addr:street":"شارع دجله","addr:country":"EG","addr:district":"العجوزه","addr:district:en":"Al Agouza","addr:postcode":"12655","addr:province":"الجيزه","addr:province:en":"Giza","addr:street:en":"Degla Street","addr:subdistrict":"المهندسين","addr:subdistrict:en":"Al Mohandessin"}},
{"type":"Feature","geometry":{"type":"Point","coordinates":[31.197637,30.051303]},"properties":{"osm_id":6771440711,"addr:housenumber":"41","addr:street":"شارع العراق","addr:country":"EG","addr:district":"العجوزه","addr:district:en":"Al Agouza","addr:postcode":"12655","addr:province":"الجيزه","addr:province:en":"Giza","addr:street:en":"Iraq Street","addr:subdistrict":"المهندسين","addr:subdistrict:en":"Al Mohandessin"}},
{"type":"Feature","geometry":{"type":"Point","coordinates":[31.199637,30.052696]},"properties":{"osm_id":6771440720,"addr:housenumber":"10","addr:street":"شارع قناه السويس","addr:country":"EG","addr:district":"العجوزه","addr:district:en":"Al Agouza","addr:postcode":"12655","addr:province":"الجيزه","addr:province:en":"Giza","addr:street:en":"Qanah Al Suez Street","addr:subdistrict":"المهندسين","addr:subdistrict:en":"Al Mohandessin"}},
{"type":"Feature","geometry":{"type":"Point","coordinates":[31.20007,30.052452]},"properties":{"osm_id":6771440727,"addr:housenumber":"3","addr:street":"شارع قناه السويس","addr:country":"EG","addr:district":"العجوزه","addr:district:en":"Al Agouza","addr:postcode":"12655","addr:province":"الجيزه","addr:province:en":"Giza","addr:street:en":"Qanah Al Suez Street","addr:subdistrict":"المهندسين","addr:subdistrict:en":"Al Mohandessin"}},
{"type":"Feature","geometry":{"type":"Point","coordinates":[31.1968541,30.051656]},"properties":{"osm_id":6771440729,"addr:housenumber":"3","addr:street":"شارع احمد البرعى","addr:country":"EG","addr:district":"العجوزه","addr:district:en":"Al Agouza","addr:postcode":"12655","addr:province":"الجيزه","addr:province:en":"Giza","addr:street:en":"Ahmed Al Borei Street","addr:subdistrict":"المهندسين","addr:subdistrict:en":"Al Mohandessin"}},
{"type":"Feature","geometry":{"type":"Point","coordinates":[31.1973175,30.0497163]},"properties":{"osm_id":6771440730,"addr:housenumber":"3","addr:street":"شارع شهاب","addr:country":"EG","addr:district":"العجوزه","addr:district:en":"Al Agouza","addr:postcode":"12655","addr:province":"الجيزه","addr:province:en":"Giza","addr:street:en":"Shehab Street","addr:subdistrict":"المهندسين","addr:subdistrict:en":"Al Mohandessin"}},
{"type":"Feature","geometry":{"type":"Point","coordinates":[31.1981195,30.0507481]},"properties":{"osm_id":6771440731,"addr:housenumber":"39","addr:street":"شارع دجله","addr:country":"EG","addr:district":"العجوزه","addr:district:en":"Al Agouza","addr:postcode":"12655","addr:province":"الجيزه","addr:province:en":"Giza","addr:street:en":"Degla Street","addr:subdistrict":"المهندسين","addr:subdistrict:en":"Al Mohandessin"}},
{"type":"Feature","geometry":{"type":"Point","coordinates":[31.1961864,30.0520695]},"properties":{"osm_id":6771440741,"addr:housenumber":"32","addr:street":"شارع عدن","addr:country":"EG","addr:district":"العجوزه","addr:district:en":"Al Agouza","addr:postcode":"12655","addr:province":"الجيزه","addr:province:en":"Giza","addr:street:en":"Adan Street","addr:subdistrict":"المهندسين","addr:subdistrict:en":"Al Mohandessin"}},
{"type":"Feature","geometry":{"type":"Point","coordinates":[31.1977735,30.0524075]},"properties":{"osm_id":6771440749,"addr:housenumber":"14","addr:street":"شارع الحجاز","addr:country":"EG","addr:district":"العجوزه","addr:district:en":"Al Agouza","addr:postcode":"12655","addr:province":"الجيزه","addr:province:en":"Giza","addr:street:en":"Al Hegaz Street","addr:subdistrict":"المهندسين","addr:subdistrict:en":"Al Mohandessin"}},
{"type":"Feature","geometry":{"type":"Point","coordinates":[31.1986207,30.051518]},"properties":{"osm_id":6771440751,"addr:housenumber":"5","addr:street":"شارع الحجاز","addr:country":"EG","addr:district":"العجوزه","addr:district:en":"Al Agouza","addr:postcode":"12655","addr:province":"الجيزه","addr:province:en":"Giza","addr:street:en":"Al Hegaz Street","addr:subdistrict":"المهندسين","addr:subdistrict:en":"Al Mohandessin"}},
{"type":"Feature","geometry":{"type":"Point","coordinates":[31.1955848,30.0524214]},"properties":{"osm_id":6771440754,"addr:housenumber":"34","addr:street":"شارع سوريا","addr:country":"EG","addr:district":"العجوزه","addr:district:en":"Al Agouza","addr:postcode":"12655","addr:province":"الجيزه","addr:province:en":"Giza","addr:street:en":"Surya Street","addr:subdistrict":"المهندسين","addr:subdistrict:en":"Al Mohandessin"}},
{"type":"Feature","geometry":{"type":"Point","coordinates":[31.1958588,30.0514551]},"properties":{"osm_id":6771440761,"addr:housenumber":"19","addr:street":"شارع شهاب","addr:country":"EG","addr:district":"العجوزه","addr:district:en":"Al Agouza","addr:postcode":"12655","addr:province":"الجيزه","addr:province:en":"Giza","addr:street:en":"Shehab Street","addr:subdistrict":"المهندسين","addr:subdistrict:en":"Al Mohandessin"}},
{"type":"Feature","geometry":{"type":"Point","coordinates":[31.1986276,30.0527431]},"properties":{"osm_id":6771440762,"addr:housenumber":"12","addr:street":"شارع حلمى محمد حسن","addr:country":"EG","addr:district":"العجوزه","addr:district:en":"Al Agouza","addr:postcode":"12655","addr:province":"الجيزه","addr:province:en":"Giza","addr:street:en":"Helmy Mohamed Hassn Street","addr:subdistrict":"المهندسين","addr:subdistrict:en":"Al Mohandessin"}},
{"type":"Feature","geometry":{"type":"Point","coordinates":[31.1976977,30.0496439]},"properties":{"osm_id":6771440765,"addr:housenumber":"43","addr:street":"شارع جامعه الدول العربيه","addr:country":"EG","addr:district":"العجوزه","addr:district:en":"Al Agouza","addr:postcode":"12655","addr:province":"الجيزه","addr:province:en":"Giza","addr:street:en":"Gamaa Al Doul Al Arabiya Street","addr:subdistrict":"المهندسين","addr:subdistrict:en":"Al Mohandessin"}},
{"type":"Feature","geometry":{"type":"Point","coordinates":[31.196104,30.0517585]},"properties":{"osm_id":6771440767,"addr:housenumber":"27","addr:street":"شارع عدن","addr:country":"EG","addr:district":"العجوزه","addr:district:en":"Al Agouza","addr:postcode":"12655","addr:province":"الجيزه","addr:province:en":"Giza","addr:street:en":"Adan Street","addr:subdistrict":"المهندسين","addr:subdistrict:en":"Al Mohandessin"}},
{"type":"Feature","geometry":{"type":"Point","coordinates":[31.1985664,30.0509641]},"properties":{"osm_id":6771440773,"addr:housenumber":"4","addr:street":"شارع الحجاز","addr:country":"EG","addr:district":"العجوزه","addr:district:en":"Al Agouza","addr:postcode":"12655","addr:province":"الجيزه","addr:province:en":"Giza","addr:street:en":"Al Hegaz Street","addr:subdistrict":"المهندسين","addr:subdistrict:en":"Al Mohandessin"}},
{"type":"Feature","geometry":{"type":"Point","coordinates":[31.1984458,30.0504563]},"properties":{"osm_id":6771440775,"addr:housenumber":"19","addr:street":"شارع جامعه الدول العربيه","addr:country":"EG","addr:district":"العجوزه","addr:district:en":"Al Agouza","addr:postcode":"12655","addr:province":"الجيزه","addr:province:en":"Giza","addr:street:en":"Gamaa Al Doul Al Arabiya Street","addr:subdistrict":"المهندسين","addr:subdistrict:en":"Al Mohandessin"}},
{"type":"Feature","geometry":{"type":"Point","coordinates":[31.196816,30.0500788]},"properties":{"osm_id":6771440780,"addr:housenumber":"7","addr:street":"شارع شهاب","addr:country":"EG","addr:district":"العجوزه","addr:district:en":"Al Agouza","addr:postcode":"12655","addr:province":"الجيزه","addr:province:en":"Giza","addr:street:en":"Shehab Street","addr:subdistrict":"المهندسين","addr:subdistrict:en":"Al Mohandessin"}},
{"type":"Feature","geometry":{"type":"Point","coordinates":[31.1983817,30.0510852]},"properties":{"osm_id":6771440781,"addr:housenumber":"43","addr:street":"شارع دجله","addr:country":"EG","addr:district":"العجوزه","addr:district:en":"Al Agouza","addr:postcode":"12655","addr:province":"الجيزه","addr:province:en":"Giza","addr:street:en":"Degla Street","addr:subdistrict":"المهندسين","addr:subdistrict:en":"Al Mohandessin"}},
{"type":"Feature","geometry":{"type":"Point","coordinates":[31.1994212,30.0514851]},"properties":{"osm_id":6771440782,"addr:housenumber":"31","addr:street":"شارع جامعه الدول العربيه","addr:country":"EG","addr:district":"العجوزه","addr:district:en":"Al Agouza","addr:postcode":"12655","addr:province":"الجيزه","addr:province:en":"Giza","addr:street:en":"Gamaa Al Doul Al Arabiya Street","addr:subdistrict":"المهندسين","addr:subdistrict:en":"Al Mohandessin"}},
{"type":"Feature","geometry":{"type":"Point","coordinates":[31.1988421,30.0520561]},"properties":{"osm_id":6771440794,"addr:housenumber":"6","addr:street":"شارع حلمى محمد حسن","addr:country":"EG","addr:district":"العجوزه","addr:district:en":"Al Agouza","addr:postcode":"12655","addr:province":"الجيزه","addr:province:en":"Giza","addr:street:en":"Helmy Mohamed Hassn Street","addr:subdistrict":"المهندسين","addr:subdistrict:en":"Al Mohandessin"}},
{"type":"Feature","geometry":{"type":"Point","coordinates":[31.1975428,30.0522008]},"properties":{"osm_id":6771440804,"addr:housenumber":"44","addr:street":"شارع عدن","addr:country":"EG","addr:district":"العجوزه","addr:district:en":"Al Agouza","addr:postcode":"12655","addr:province":"الجيزه","addr:province:en":"Giza","addr:street:en":"Adan Street","addr:subdistrict":"المهندسين","addr:subdistrict:en":"Al Mohandessin"}},
{"type":"Feature","geometry":{"type":"Point","coordinates":[31.1969049,30.0515141]},"properties":{"osm_id":6771440805,"addr:housenumber":"5","addr:street":"شارع احمد البرعى","addr:country":"EG","addr:district":"العجوزه","addr:district:en":"Al Agouza","addr:postcode":"12655","addr:province":"الجيزه","addr:province:en":"Giza","addr:street:en":"Ahmed Al Borei Street","addr:subdistrict":"المهندسين","addr:subdistrict:en":"Al Mohandessin"}},
{"type":"Feature","geometry":{"type":"Point","coordinates":[31.1969326,30.0525375]},"properties":{"osm_id":6771440817,"addr:housenumber":"24","addr:street":"شارع سوريا","addr:country":"EG","addr:district":"العجوزه","addr:district:en":"Al Agouza","addr:postcode":"12655","addr:province":"الجيزه","addr:province:en":"Giza","addr:street:en":"Surya Street","addr:subdistrict":"المهندسين","addr:subdistrict:en":"Al Mohandessin"}},
{"type":"Feature","geometry":{"type":"Point","coordinates":[31.1966386,30.0521133]},"properties":{"osm_id":6771440827,"addr:housenumber":"36","addr:street":"شارع عدن","addr:country":"EG","addr:district":"العجوزه","addr:district:en":"Al Agouza","addr:postcode":"12655","addr:province":"الجيزه","addr:province:en":"Giza","addr:street:en":"Adan Street","addr:subdistrict":"المهندسين","addr:subdistrict:en":"Al Mohandessin"}},
{"type":"Feature","geometry":{"type":"Point","coordinates":[31.1976946,30.0509507]},"properties":{"osm_id":6771440831,"addr:housenumber":"34","addr:street":"شارع دجله","addr:country":"EG","addr:district":"العجوزه","addr:district:en":"Al Agouza","addr:postcode":"12655","addr:province":"الجيزه","addr:province:en":"Giza","addr:street:en":"Degla Street","addr:subdistrict":"المهندسين","addr:subdistrict:en":"Al Mohandessin"}},
{"type":"Feature","geometry":{"type":"Point","coordinates":[31.2012148,30.0406291]},"properties":{"osm_id":6782878966,"addr:housenumber":"38","addr:street":"شارع جمال سالم","addr:country":"EG","addr:district":"الدقى","addr:district:en":"Al Doqi","addr:postcode":"12615","addr:province":"الجيزه","addr:province:en":"Giza","addr:street:en":"Gamal Salem Street","addr:subdistrict":"مدينه الاوقاف","addr:subdistrict:en":"Al Awqaf City"}},
{"type":"Feature","geometry":{"type":"Point","coordinates":[31.1987042,30.0475807]},"properties":{"osm_id":6782879098,"addr:housenumber":"105","addr:street":"شارع الحسين","addr:country":"EG","addr:district":"الدقى","addr:district:en":"Al Doqi","addr:postcode":"12615","addr:province":"الجيزه","addr:province:en":"Giza","addr:street:en":"Al Hussein Street","addr:subdistrict":"مدينه الاوقاف","addr:subdistrict:en":"Al Awqaf City"}},
{"type":"Feature","geometry":{"type":"Point","coordinates":[31.1987606,30.0473833]},"properties":{"osm_id":6782879099,"addr:housenumber":"103","addr:street":"شارع الحسين","addr:country":"EG","addr:district":"الدقى","addr:district:en":"Al Doqi","addr:postcode":"12615","addr:province":"الجيزه","addr:province:en":"Giza","addr:street:en":"Al Hussein Street","addr:subdistrict":"مدينه الاوقاف","addr:subdistrict:en":"Al Awqaf City"}},
{"type":"Feature","geometry":{"type":"Point","coordinates":[31.1988142,30.0471697]},"properties":{"osm_id":6782879100,"addr:housenumber":"101","addr:street":"شارع الحسين","addr:country":"EG","addr:district":"الدقى","addr:district:en":"Al Doqi","addr:postcode":"12615","addr:province":"الجيزه","addr:province:en":"Giza","addr:street:en":"Al Hussein Street","addr:subdistrict":"مدينه الاوقاف","addr:subdistrict:en":"Al Awqaf City"}},
{"type":"Feature","geometry":{"type":"Point","coordinates":[31.1988544,30.0469886]},"properties":{"osm_id":6782879101,"addr:housenumber":"28","addr:street":"شارع الاطباء","addr:country":"EG","addr:district":"الدقى","addr:district:en":"Al Doqi","addr:postcode":"12615","addr:province":"الجيزه","addr:province:en":"Giza","addr:street:en":"Al Atba' Street","addr:subdistrict":"مدينه الاوقاف","addr:subdistrict:en":"Al Awqaf City"}},
{"type":"Feature","geometry":{"type":"Point","coordinates":[31.1985245,30.0476991]},"properties":{"osm_id":6782879102,"addr:housenumber":"16","addr:street":"شارع المدينه المنوره","addr:country":"EG","addr:district":"الدقى","addr:district:en":"Al Doqi","addr:postcode":"12615","addr:province":"الجيزه","addr:province:en":"Giza","addr:street:en":"Al Madina Al Mnoura Street","addr:subdistrict":"مدينه الاوقاف","addr:subdistrict:en":"Al Awqaf City"}},
{"type":"Feature","geometry":{"type":"Point","coordinates":[31.1986801,30.0478825]},"properties":{"osm_id":6782879103,"addr:housenumber":"14","addr:street":"شارع المدينه المنوره","addr:country":"EG","addr:district":"الدقى","addr:district:en":"Al Doqi","addr:postcode":"12615","addr:province":"الجيزه","addr:province:en":"Giza","addr:street:en":"Al Madina Al Mnoura Street","addr:subdistrict":"مدينه الاوقاف","addr:subdistrict:en":"Al Awqaf City"}},
{"type":"Feature","geometry":{"type":"Point","coordinates":[31.196883,30.0469608]},"properties":{"osm_id":6782879104,"addr:housenumber":"11","addr:street":"شارع زمزم","addr:country":"EG","addr:district":"الدقى","addr:district:en":"Al Doqi","addr:postcode":"12615","addr:province":"الجيزه","addr:province:en":"Giza","addr:street:en":"Zamzam Street","addr:subdistrict":"مدينه الاوقاف","addr:subdistrict:en":"Al Awqaf City"}},
{"type":"Feature","geometry":{"type":"Point","coordinates":[31.1985299,30.0482586]},"properties":{"osm_id":6782879105,"addr:housenumber":"21`","addr:street":"شارع المدينه المنوره","addr:country":"EG","addr:district":"الدقى","addr:district:en":"Al Doqi","addr:postcode":"12615","addr:province":"الجيزه","addr:province:en":"Giza","addr:street:en":"Al Madina Al Mnoura Street","addr:subdistrict":"مدينه الاوقاف","addr:subdistrict:en":"Al Awqaf City"}},
{"type":"Feature","geometry":{"type":"Point","coordinates":[31.1984387,30.0471813]},"properties":{"osm_id":6782879106,"addr:housenumber":"80","addr:street":"شارع الحسين","addr:country":"EG","addr:district":"الدقى","addr:district:en":"Al Doqi","addr:postcode":"12615","addr:province":"الجيزه","addr:province:en":"Giza","addr:street:en":"Al Hussein Street","addr:subdistrict":"مدينه الاوقاف","addr:subdistrict:en":"Al Awqaf City"}},
{"type":"Feature","geometry":{"type":"Point","coordinates":[31.1982751,30.0465103]},"properties":{"osm_id":6782879107,"addr:housenumber":"19","addr:street":"شارع الاطباء","addr:country":"EG","addr:district":"الدقى","addr:district:en":"Al Doqi","addr:postcode":"12615","addr:province":"الجيزه","addr:province:en":"Giza","addr:street:en":"Al Atba' Street","addr:subdistrict":"مدينه الاوقاف","addr:subdistrict:en":"Al Awqaf City"}},
{"type":"Feature","geometry":{"type":"Point","coordinates":[31.1981383,30.0463687]},"properties":{"osm_id":6782879108,"addr:housenumber":"17","addr:street":"شارع الاطباء","addr:country":"EG","addr:district":"الدقى","addr:district:en":"Al Doqi","addr:postcode":"12615","addr:province":"الجيزه","addr:province:en":"Giza","addr:street:en":"Al Atba' Street","addr:subdistrict":"مدينه الاوقاف","addr:subdistrict:en":"Al Awqaf City"}},
{"type":"Feature","geometry":{"type":"Point","coordinates":[31.1980203,30.0462016]},"properties":{"osm_id":6782879109,"addr:housenumber":"18","addr:street":"شارع زمزم","addr:country":"EG","addr:district":"الدقى","addr:district:en":"Al Doqi","addr:postcode":"12615","addr:province":"الجيزه","addr:province:en":"Giza","addr:street:en":"Zamzam Street","addr:subdistrict":"مدينه الاوقاف","addr:subdistrict:en":"Al Awqaf City"}},
{"type":"Feature","geometry":{"type":"Point","coordinates":[31.1985245,30.0466798]},"properties":{"osm_id":6782879110,"addr:housenumber":"76","addr:street":"شارع الحسين","addr:country":"EG","addr:district":"الدقى","addr:district:en":"Al Doqi","addr:postcode":"12615","addr:province":"الجيزه","addr:province:en":"Giza","addr:street:en":"Al Hussein Street","addr:subdistrict":"مدينه الاوقاف","addr:subdistrict:en":"Al Awqaf City"}},
{"type":"Feature","geometry":{"type":"Point","coordinates":[31.198495,30.0464198]},"properties":{"osm_id":6782879111,"addr:housenumber":"76","addr:street":"شارع الحكمه","addr:country":"EG","addr:district":"الدقى","addr:district:en":"Al Doqi","addr:postcode":"12615","addr:province":"الجيزه","addr:province:en":"Giza","addr:street:en":"Al Hekma Street","addr:subdistrict":"مدينه الاوقاف","addr:subdistrict:en":"Al Awqaf City"}},
{"type":"Feature","geometry":{"type":"Point","coordinates":[31.1983556,30.0462387]},"properties":{"osm_id":6782879112,"addr:housenumber":"74","addr:street":"شارع الحكمه","addr:country":"EG","addr:district":"الدقى","addr:district:en":"Al Doqi","addr:postcode":"12615","addr:province":"الجيزه","addr:province:en":"Giza","addr:street:en":"Al Hekma Street","addr:subdistrict":"مدينه الاوقاف","addr:subdistrict:en":"Al Awqaf City"}},
{"type":"Feature","geometry":{"type":"Point","coordinates":[31.1982402,30.0460901]},"properties":{"osm_id":6782879113,"addr:housenumber":"72","addr:street":"شارع الحكمه","addr:country":"EG","addr:district":"الدقى","addr:district:en":"Al Doqi","addr:postcode":"12615","addr:province":"الجيزه","addr:province:en":"Giza","addr:street:en":"Al Hekma Street","addr:subdistrict":"مدينه الاوقاف","addr:subdistrict:en":"Al Awqaf City"}},
{"type":"Feature","geometry":{"type":"Point","coordinates":[31.1976743,30.0458161]},"properties":{"osm_id":6782879114,"addr:housenumber":"11","addr:street":"شارع الاطباء","addr:country":"EG","addr:district":"الدقى","addr:district:en":"Al Doqi","addr:postcode":"12615","addr:province":"الجيزه","addr:province:en":"Giza","addr:street:en":"Al Atba' Street","addr:subdistrict":"مدينه الاوقاف","addr:subdistrict:en":"Al Awqaf City"}},
{"type":"Feature","geometry":{"type":"Point","coordinates":[31.1975643,30.0456722]},"properties":{"osm_id":6782879115,"addr:housenumber":"9","addr:street":"شارع الاطباء","addr:country":"EG","addr:district":"الدقى","addr:district:en":"Al Doqi","addr:postcode":"12615","addr:province":"الجيزه","addr:province:en":"Giza","addr:street:en":"Al Atba' Street","addr:subdistrict":"مدينه الاوقاف","addr:subdistrict:en":"Al Awqaf City"}},
{"type":"Feature","geometry":{"type":"Point","coordinates":[31.1973953,30.045512]},"properties":{"osm_id":6782879116,"addr:housenumber":"7","addr:street":"شارع الاطباء","addr:country":"EG","addr:district":"الدقى","addr:district:en":"Al Doqi","addr:postcode":"12615","addr:province":"الجيزه","addr:province:en":"Giza","addr:street:en":"Al Atba' Street","addr:subdistrict":"مدينه الاوقاف","addr:subdistrict:en":"Al Awqaf City"}},
{"type":"Feature","geometry":{"type":"Point","coordinates":[31.1978137,30.0459787]},"properties":{"osm_id":6782879117,"addr:housenumber":"4","addr:street":"شارع زمزم","addr:country":"EG","addr:district":"الدقى","addr:district:en":"Al Doqi","addr:postcode":"12615","addr:province":"الجيزه","addr:province:en":"Giza","addr:street:en":"Zamzam Street","addr:subdistrict":"مدينه الاوقاف","addr:subdistrict:en":"Al Awqaf City"}},
{"type":"Feature","geometry":{"type":"Point","coordinates":[31.1977637,30.0455189]},"properties":{"osm_id":6782879118,"addr:housenumber":"11","addr:street":"شارع الحكمه","addr:country":"EG","addr:district":"الدقى","addr:district:en":"Al Doqi","addr:postcode":"12615","addr:province":"الجيزه","addr:province:en":"Giza","addr:street:en":"Al Hekma Street","addr:subdistrict":"مدينه الاوقاف","addr:subdistrict:en":"Al Awqaf City"}},
{"type":"Feature","geometry":{"type":"Point","coordinates":[31.197904,30.0456722]},"properties":{"osm_id":6782879119,"addr:housenumber":"9","addr:street":"شارع الحكمه","addr:country":"EG","addr:district":"الدقى","addr:district:en":"Al Doqi","addr:postcode":"12615","addr:province":"الجيزه","addr:province:en":"Giza","addr:street:en":"Al Hekma Street","addr:subdistrict":"مدينه الاوقاف","addr:subdistrict:en":"Al Awqaf City"}},
{"type":"Feature","geometry":{"type":"Point","coordinates":[31.1980444,30.0458254]},"properties":{"osm_id":6782879120,"addr:housenumber":"7","addr:street":"شارع الحكمه","addr:country":"EG","addr:district":"الدقى","addr:district:en":"Al Doqi","addr:postcode":"12615","addr:province":"الجيزه","addr:province:en":"Giza","addr:street:en":"Al Hekma Street","addr:subdistrict":"مدينه الاوقاف","addr:subdistrict:en":"Al Awqaf City"}},
{"type":"Feature","geometry":{"type":"Point","coordinates":[31.1973417,30.0453146]},"properties":{"osm_id":6782879121,"addr:housenumber":"3","addr:street":"شارع الكوثر","addr:country":"EG","addr:district":"الدقى","addr:district:en":"Al Doqi","addr:postcode":"12615","addr:province":"الجيزه","addr:province:en":"Giza","addr:street:en":"Al Kawthar Street","addr:subdistrict":"مدينه الاوقاف","addr:subdistrict:en":"Al Awqaf City"}},
{"type":"Feature","geometry":{"type":"Point","coordinates":[31.1976233,30.0453657]},"properties":{"osm_id":6782879122,"addr:housenumber":"1","addr:street":"شارع الكوثر","addr:country":"EG","addr:district":"الدقى","addr:district:en":"Al Doqi","addr:postcode":"12615","addr:province":"الجيزه","addr:province:en":"Giza","addr:street:en":"Al Kawthar Street","addr:subdistrict":"مدينه الاوقاف","addr:subdistrict:en":"Al Awqaf City"}},
{"type":"Feature","geometry":{"type":"Point","coordinates":[31.1966711,30.0452543]},"properties":{"osm_id":6782879123,"addr:housenumber":"7","addr:street":"شارع الكوثر","addr:country":"EG","addr:district":"الدقى","addr:district:en":"Al Doqi","addr:postcode":"12615","addr:province":"الجيزه","addr:province:en":"Giza","addr:street:en":"Al Kawthar Street","addr:subdistrict":"مدينه الاوقاف","addr:subdistrict:en":"Al Awqaf City"}},
{"type":"Feature","geometry":{"type":"Point","coordinates":[31.1963573,30.0453216]},"properties":{"osm_id":6782879124,"addr:housenumber":"9","addr:street":"شارع الكوثر","addr:country":"EG","addr:district":"الدقى","addr:district:en":"Al Doqi","addr:postcode":"12615","addr:province":"الجيزه","addr:province:en":"Giza","addr:street:en":"Al Kawthar Street","addr:subdistrict":"مدينه الاوقاف","addr:subdistrict:en":"Al Awqaf City"}},
{"type":"Feature","geometry":{"type":"Point","coordinates":[31.1964161,30.0459982]},"properties":{"osm_id":6782879125,"addr:housenumber":"51`","addr:street":"شارع المدينه المنوره","addr:country":"EG","addr:district":"الدقى","addr:district:en":"Al Doqi","addr:postcode":"12615","addr:province":"الجيزه","addr:province:en":"Giza","addr:street:en":"Al Madina Al Mnoura Street","addr:subdistrict":"مدينه الاوقاف","addr:subdistrict:en":"Al Awqaf City"}},
{"type":"Feature","geometry":{"type":"Point","coordinates":[31.1957914,30.0457697]},"properties":{"osm_id":6782879126,"addr:housenumber":"13","addr:street":"شارع الكوثر","addr:country":"EG","addr:district":"الدقى","addr:district:en":"Al Doqi","addr:postcode":"12615","addr:province":"الجيزه","addr:province:en":"Giza","addr:street:en":"Al Kawthar Street","addr:subdistrict":"مدينه الاوقاف","addr:subdistrict:en":"Al Awqaf City"}},
{"type":"Feature","geometry":{"type":"Point","coordinates":[31.1958933,30.0456954]},"properties":{"osm_id":6782879127,"addr:housenumber":"11","addr:street":"شارع الكوثر","addr:country":"EG","addr:district":"الدقى","addr:district:en":"Al Doqi","addr:postcode":"12615","addr:province":"الجيزه","addr:province:en":"Giza","addr:street:en":"Al Kawthar Street","addr:subdistrict":"مدينه الاوقاف","addr:subdistrict:en":"Al Awqaf City"}},
{"type":"Feature","geometry":{"type":"Point","coordinates":[31.1956251,30.0459299]},"properties":{"osm_id":6782879128,"addr:housenumber":"21`","addr:street":"شارع جامعه الدول العربيه","addr:country":"EG","addr:district":"الدقى","addr:district:en":"Al Doqi","addr:postcode":"12615","addr:province":"الجيزه","addr:province:en":"Giza","addr:street:en":"Gamaa Al Doul Al Arabiya Street","addr:subdistrict":"مدينه الاوقاف","addr:subdistrict:en":"Al Awqaf City"}},
{"type":"Feature","geometry":{"type":"Point","coordinates":[31.1958705,30.046219]},"properties":{"osm_id":6782879129,"addr:housenumber":"19","addr:street":"شارع جامعه الدول العربيه","addr:country":"EG","addr:district":"الدقى","addr:district:en":"Al Doqi","addr:postcode":"12615","addr:province":"الجيزه","addr:province:en":"Giza","addr:street:en":"Gamaa Al Doul Al Arabiya Street","addr:subdistrict":"مدينه الاوقاف","addr:subdistrict:en":"Al Awqaf City"}},
{"type":"Feature","geometry":{"type":"Point","coordinates":[31.1957069,30.0460263]},"properties":{"osm_id":6782879130,"addr:housenumber":"21","addr:street":"شارع جامعه الدول العربيه","addr:country":"EG","addr:district":"الدقى","addr:district:en":"Al Doqi","addr:postcode":"12615","addr:province":"الجيزه","addr:province:en":"Giza","addr:street:en":"Gamaa Al Doul Al Arabiya Street","addr:subdistrict":"مدينه الاوقاف","addr:subdistrict:en":"Al Awqaf City"}},
{"type":"Feature","geometry":{"type":"Point","coordinates":[31.1957887,30.0461226]},"properties":{"osm_id":6782879131,"addr:housenumber":"20","addr:street":"شارع جامعه الدول العربيه","addr:country":"EG","addr:district":"الدقى","addr:district:en":"Al Doqi","addr:postcode":"12615","addr:province":"الجيزه","addr:province:en":"Giza","addr:street:en":"Gamaa Al Doul Al Arabiya Street","addr:subdistrict":"مدينه الاوقاف","addr:subdistrict:en":"Al Awqaf City"}},
{"type":"Feature","geometry":{"type":"Point","coordinates":[31.1959523,30.0463153]},"properties":{"osm_id":6782879132,"addr:housenumber":"18","addr:street":"شارع جامعه الدول العربيه","addr:country":"EG","addr:district":"الدقى","addr:district:en":"Al Doqi","addr:postcode":"12615","addr:province":"الجيزه","addr:province:en":"Giza","addr:street:en":"Gamaa Al Doul Al Arabiya Street","addr:subdistrict":"مدينه الاوقاف","addr:subdistrict:en":"Al Awqaf City"}},
{"type":"Feature","geometry":{"type":"Point","coordinates":[31.1962152,30.0462712]},"properties":{"osm_id":6782879133,"addr:housenumber":"17","addr:street":"شارع جامعه الدول العربيه","addr:country":"EG","addr:district":"الدقى","addr:district:en":"Al Doqi","addr:postcode":"12615","addr:province":"الجيزه","addr:province:en":"Giza","addr:street:en":"Gamaa Al Doul Al Arabiya Street","addr:subdistrict":"مدينه الاوقاف","addr:subdistrict:en":"Al Awqaf City"}},
{"type":"Feature","geometry":{"type":"Point","coordinates":[31.1952925,30.0447435]},"properties":{"osm_id":6782879134,"addr:housenumber":"67A","addr:street":"شارع المدينه المنوره","addr:country":"EG","addr:district":"الدقى","addr:district:en":"Al Doqi","addr:postcode":"12615","addr:province":"الجيزه","addr:province:en":"Giza","addr:street:en":"Al Madina Al Mnoura Street","addr:subdistrict":"مدينه الاوقاف","addr:subdistrict:en":"Al Awqaf City"}},
{"type":"Feature","geometry":{"type":"Point","coordinates":[31.1957994,30.0452821]},"properties":{"osm_id":6782879135,"addr:housenumber":"61","addr:street":"شارع المدينه المنوره","addr:country":"EG","addr:district":"الدقى","addr:district:en":"Al Doqi","addr:postcode":"12615","addr:province":"الجيزه","addr:province:en":"Giza","addr:street:en":"Al Madina Al Mnoura Street","addr:subdistrict":"مدينه الاوقاف","addr:subdistrict:en":"Al Awqaf City"}},
{"type":"Feature","geometry":{"type":"Point","coordinates":[31.1949357,30.0448479]},"properties":{"osm_id":6782879136,"addr:housenumber":"28","addr:street":"شارع جامعه الدول العربيه","addr:country":"EG","addr:district":"الدقى","addr:district:en":"Al Doqi","addr:postcode":"12615","addr:province":"الجيزه","addr:province:en":"Giza","addr:street:en":"Gamaa Al Doul Al Arabiya Street","addr:subdistrict":"مدينه الاوقاف","addr:subdistrict:en":"Al Awqaf City"}},
{"type":"Feature","geometry":{"type":"Point","coordinates":[31.1950659,30.0449852]},"properties":{"osm_id":6782879137,"addr:housenumber":"27","addr:street":"شارع جامعه الدول العربيه","addr:country":"EG","addr:district":"الدقى","addr:district:en":"Al Doqi","addr:postcode":"12615","addr:province":"الجيزه","addr:province:en":"Giza","addr:street:en":"Gamaa Al Doul Al Arabiya Street","addr:subdistrict":"مدينه الاوقاف","addr:subdistrict:en":"Al Awqaf City"}},
{"type":"Feature","geometry":{"type":"Point","coordinates":[31.1952478,30.045177]},"properties":{"osm_id":6782879138,"addr:housenumber":"26","addr:street":"شارع جامعه الدول العربيه","addr:country":"EG","addr:district":"الدقى","addr:district:en":"Al Doqi","addr:postcode":"12615","addr:province":"الجيزه","addr:province:en":"Giza","addr:street:en":"Gamaa Al Doul Al Arabiya Street","addr:subdistrict":"مدينه الاوقاف","addr:subdistrict:en":"Al Awqaf City"}},
{"type":"Feature","geometry":{"type":"Point","coordinates":[31.1953545,30.0452895]},"properties":{"osm_id":6782879139,"addr:housenumber":"25","addr:street":"شارع جامعه الدول العربيه","addr:country":"EG","addr:district":"الدقى","addr:district:en":"Al Doqi","addr:postcode":"12615","addr:province":"الجيزه","addr:province:en":"Giza","addr:street:en":"Gamaa Al Doul Al Arabiya Street","addr:subdistrict":"مدينه الاوقاف","addr:subdistrict:en":"Al Awqaf City"}},
{"type":"Feature","geometry":{"type":"Point","coordinates":[31.1954641,30.0454052]},"properties":{"osm_id":6782879140,"addr:housenumber":"24","addr:street":"شارع جامعه الدول العربيه","addr:country":"EG","addr:district":"الدقى","addr:district:en":"Al Doqi","addr:postcode":"12615","addr:province":"الجيزه","addr:province:en":"Giza","addr:street:en":"Gamaa Al Doul Al Arabiya Street","addr:subdistrict":"مدينه الاوقاف","addr:subdistrict:en":"Al Awqaf City"}},
{"type":"Feature","geometry":{"type":"Point","coordinates":[31.19555,30.0455654]},"properties":{"osm_id":6782879141,"addr:housenumber":"23","addr:street":"شارع جامعه الدول العربيه","addr:country":"EG","addr:district":"الدقى","addr:district:en":"Al Doqi","addr:postcode":"12615","addr:province":"الجيزه","addr:province:en":"Giza","addr:street:en":"Gamaa Al Doul Al Arabiya Street","addr:subdistrict":"مدينه الاوقاف","addr:subdistrict:en":"Al Awqaf City"}},
{"type":"Feature","geometry":{"type":"Point","coordinates":[31.1941847,30.0444347]},"properties":{"osm_id":6782879142,"addr:housenumber":"32","addr:street":"شارع جامعه الدول العربيه","addr:country":"EG","addr:district":"الدقى","addr:district:en":"Al Doqi","addr:postcode":"12615","addr:province":"الجيزه","addr:province:en":"Giza","addr:street:en":"Gamaa Al Doul Al Arabiya Street","addr:subdistrict":"مدينه الاوقاف","addr:subdistrict:en":"Al Awqaf City"}},
{"type":"Feature","geometry":{"type":"Point","coordinates":[31.1943963,30.0445801]},"properties":{"osm_id":6782879143,"addr:housenumber":"31","addr:street":"شارع جامعه الدول العربيه","addr:country":"EG","addr:district":"الدقى","addr:district:en":"Al Doqi","addr:postcode":"12615","addr:province":"الجيزه","addr:province:en":"Giza","addr:street:en":"Gamaa Al Doul Al Arabiya Street","addr:subdistrict":"مدينه الاوقاف","addr:subdistrict:en":"Al Awqaf City"}},
{"type":"Feature","geometry":{"type":"Point","coordinates":[31.1946113,30.0447285]},"properties":{"osm_id":6782879144,"addr:housenumber":"30","addr:street":"شارع جامعه الدول العربيه","addr:country":"EG","addr:district":"الدقى","addr:district:en":"Al Doqi","addr:postcode":"12615","addr:province":"الجيزه","addr:province:en":"Giza","addr:street:en":"Gamaa Al Doul Al Arabiya Street","addr:subdistrict":"مدينه الاوقاف","addr:subdistrict:en":"Al Awqaf City"}},
{"type":"Feature","geometry":{"type":"Point","coordinates":[31.1947292,30.0448642]},"properties":{"osm_id":6782879145,"addr:housenumber":"29","addr:street":"شارع جامعه الدول العربيه","addr:country":"EG","addr:district":"الدقى","addr:district:en":"Al Doqi","addr:postcode":"12615","addr:province":"الجيزه","addr:province:en":"Giza","addr:street:en":"Gamaa Al Doul Al Arabiya Street","addr:subdistrict":"مدينه الاوقاف","addr:subdistrict:en":"Al Awqaf City"}},
{"type":"Feature","geometry":{"type":"Point","coordinates":[31.194925,30.044437]},"properties":{"osm_id":6782879146,"addr:housenumber":"4","addr:street":"شارع جده","addr:country":"EG","addr:district":"الدقى","addr:district:en":"Al Doqi","addr:postcode":"12615","addr:province":"الجيزه","addr:province:en":"Giza","addr:street:en":"Gada Street","addr:subdistrict":"مدينه الاوقاف","addr:subdistrict:en":"Al Awqaf City"}},
{"type":"Feature","geometry":{"type":"Point","coordinates":[31.1958928,30.0445475]},"properties":{"osm_id":6782879147,"addr:housenumber":"10","addr:street":"شارع جده","addr:country":"EG","addr:district":"الدقى","addr:district:en":"Al Doqi","addr:postcode":"12615","addr:province":"الجيزه","addr:province:en":"Giza","addr:street:en":"Gada Street","addr:subdistrict":"مدينه الاوقاف","addr:subdistrict:en":"Al Awqaf City"}},
{"type":"Feature","geometry":{"type":"Point","coordinates":[31.1987767,30.0451475]},"properties":{"osm_id":6782879148,"addr:housenumber":"72","addr:street":"شارع الحسين","addr:country":"EG","addr:district":"الدقى","addr:district:en":"Al Doqi","addr:postcode":"12615","addr:province":"الجيزه","addr:province:en":"Giza","addr:street:en":"Al Hussein Street","addr:subdistrict":"مدينه الاوقاف","addr:subdistrict:en":"Al Awqaf City"}},
{"type":"Feature","geometry":{"type":"Point","coordinates":[31.1989477,30.0463809]},"properties":{"osm_id":6782879149,"addr:housenumber":"93","addr:street":"شارع الحسين","addr:country":"EG","addr:district":"الدقى","addr:district:en":"Al Doqi","addr:postcode":"12615","addr:province":"الجيزه","addr:province:en":"Giza","addr:street:en":"Al Hussein Street","addr:subdistrict":"مدينه الاوقاف","addr:subdistrict:en":"Al Awqaf City"}},
{"type":"Feature","geometry":{"type":"Point","coordinates":[31.1989738,30.0462027]},"properties":{"osm_id":6782879150,"addr:housenumber":"91","addr:street":"شارع الحسين","addr:country":"EG","addr:district":"الدقى","addr:district:en":"Al Doqi","addr:postcode":"12615","addr:province":"الجيزه","addr:province:en":"Giza","addr:street:en":"Al Hussein Street","addr:subdistrict":"مدينه الاوقاف","addr:subdistrict:en":"Al Awqaf City"}},
{"type":"Feature","geometry":{"type":"Point","coordinates":[31.199,30.0460245]},"properties":{"osm_id":6782879151,"addr:housenumber":"89","addr:street":"شارع الحسين","addr:country":"EG","addr:district":"الدقى","addr:district:en":"Al Doqi","addr:postcode":"12615","addr:province":"الجيزه","addr:province:en":"Giza","addr:street:en":"Al Hussein Street","addr:subdistrict":"مدينه الاوقاف","addr:subdistrict:en":"Al Awqaf City"}},
{"type":"Feature","geometry":{"type":"Point","coordinates":[31.1990261,30.0458463]},"properties":{"osm_id":6782879152,"addr:housenumber":"87","addr:street":"شارع الحسين","addr:country":"EG","addr:district":"الدقى","addr:district:en":"Al Doqi","addr:postcode":"12615","addr:province":"الجيزه","addr:province:en":"Giza","addr:street:en":"Al Hussein Street","addr:subdistrict":"مدينه الاوقاف","addr:subdistrict:en":"Al Awqaf City"}},
{"type":"Feature","geometry":{"type":"Point","coordinates":[31.1990523,30.0456681]},"properties":{"osm_id":6782879153,"addr:housenumber":"85","addr:street":"شارع الحسين","addr:country":"EG","addr:district":"الدقى","addr:district:en":"Al Doqi","addr:postcode":"12615","addr:province":"الجيزه","addr:province:en":"Giza","addr:street:en":"Al Hussein Street","addr:subdistrict":"مدينه الاوقاف","addr:subdistrict:en":"Al Awqaf City"}},
{"type":"Feature","geometry":{"type":"Point","coordinates":[31.1990784,30.0454899]},"properties":{"osm_id":6782879154,"addr:housenumber":"83","addr:street":"شارع الحسين","addr:country":"EG","addr:district":"الدقى","addr:district:en":"Al Doqi","addr:postcode":"12615","addr:province":"الجيزه","addr:province:en":"Giza","addr:street:en":"Al Hussein Street","addr:subdistrict":"مدينه الاوقاف","addr:subdistrict:en":"Al Awqaf City"}},
{"type":"Feature","geometry":{"type":"Point","coordinates":[31.1991046,30.0453117]},"properties":{"osm_id":6782879155,"addr:housenumber":"81","addr:street":"شارع الحسين","addr:country":"EG","addr:district":"الدقى","addr:district:en":"Al Doqi","addr:postcode":"12615","addr:province":"الجيزه","addr:province:en":"Giza","addr:street:en":"Al Hussein Street","addr:subdistrict":"مدينه الاوقاف","addr:subdistrict:en":"Al Awqaf City"}},
{"type":"Feature","geometry":{"type":"Point","coordinates":[31.1989215,30.0465591]},"properties":{"osm_id":6782879156,"addr:housenumber":"95","addr:street":"شارع الحسين","addr:country":"EG","addr:district":"الدقى","addr:district:en":"Al Doqi","addr:postcode":"12615","addr:province":"الجيزه","addr:province:en":"Giza","addr:street:en":"Al Hussein Street","addr:subdistrict":"مدينه الاوقاف","addr:subdistrict:en":"Al Awqaf City"}},
{"type":"Feature","geometry":{"type":"Point","coordinates":[31.1991307,30.0451335]},"properties":{"osm_id":6782879157,"addr:housenumber":"79","addr:street":"شارع الحسين","addr:country":"EG","addr:district":"الدقى","addr:district:en":"Al Doqi","addr:postcode":"12615","addr:province":"الجيزه","addr:province:en":"Giza","addr:street:en":"Al Hussein Street","addr:subdistrict":"مدينه الاوقاف","addr:subdistrict:en":"Al Awqaf City"}},
{"type":"Feature","geometry":{"type":"Point","coordinates":[31.1991683,30.044971]},"properties":{"osm_id":6782879158,"addr:housenumber":"36","addr:street":"شارع جده","addr:country":"EG","addr:district":"الدقى","addr:district:en":"Al Doqi","addr:postcode":"12615","addr:province":"الجيزه","addr:province:en":"Giza","addr:street:en":"Gada Street","addr:subdistrict":"مدينه الاوقاف","addr:subdistrict:en":"Al Awqaf City"}},
{"type":"Feature","geometry":{"type":"Point","coordinates":[31.1989135,30.0467077]},"properties":{"osm_id":6782879159,"addr:housenumber":"23","addr:street":"شارع الاطباء","addr:country":"EG","addr:district":"الدقى","addr:district:en":"Al Doqi","addr:postcode":"12615","addr:province":"الجيزه","addr:province:en":"Giza","addr:street:en":"Al Atba' Street","addr:subdistrict":"مدينه الاوقاف","addr:subdistrict:en":"Al Awqaf City"}},
{"type":"Feature","geometry":{"type":"Point","coordinates":[31.1992004,30.0467356]},"properties":{"osm_id":6782879160,"addr:housenumber":"25","addr:street":"شارع الاطباء","addr:country":"EG","addr:district":"الدقى","addr:district:en":"Al Doqi","addr:postcode":"12615","addr:province":"الجيزه","addr:province:en":"Giza","addr:street:en":"Al Atba' Street","addr:subdistrict":"مدينه الاوقاف","addr:subdistrict:en":"Al Awqaf City"}},
{"type":"Feature","geometry":{"type":"Point","coordinates":[31.1981195,30.0444416]},"properties":{"osm_id":6782879161,"addr:housenumber":"39","addr:street":"شارع جده","addr:country":"EG","addr:district":"الدقى","addr:district:en":"Al Doqi","addr:postcode":"12615","addr:province":"الجيزه","addr:province:en":"Giza","addr:street:en":"Gada Street","addr:subdistrict":"مدينه الاوقاف","addr:subdistrict:en":"Al Awqaf City"}},
{"type":"Feature","geometry":{"type":"Point","coordinates":[31.1981551,30.0442338]},"properties":{"osm_id":6782879162,"addr:housenumber":"8","addr:street":"شارع الصفا","addr:country":"EG","addr:district":"الدقى","addr:district:en":"Al Doqi","addr:postcode":"12615","addr:province":"الجيزه","addr:province:en":"Giza","addr:street:en":"Al Safa Street","addr:subdistrict":"مدينه الاوقاف","addr:subdistrict:en":"Al Awqaf City"}},
{"type":"Feature","geometry":{"type":"Point","coordinates":[31.1981906,30.044026]},"properties":{"osm_id":6782879163,"addr:housenumber":"6","addr:street":"شارع الصفا","addr:country":"EG","addr:district":"الدقى","addr:district:en":"Al Doqi","addr:postcode":"12615","addr:province":"الجيزه","addr:province:en":"Giza","addr:street:en":"Al Safa Street","addr:subdistrict":"مدينه الاوقاف","addr:subdistrict:en":"Al Awqaf City"}},
{"type":"Feature","geometry":{"type":"Point","coordinates":[31.1982261,30.0438182]},"properties":{"osm_id":6782879164,"addr:housenumber":"4","addr:street":"شارع الصفا","addr:country":"EG","addr:district":"الدقى","addr:district:en":"Al Doqi","addr:postcode":"12615","addr:province":"الجيزه","addr:province:en":"Giza","addr:street:en":"Al Safa Street","addr:subdistrict":"مدينه الاوقاف","addr:subdistrict:en":"Al Awqaf City"}},
{"type":"Feature","geometry":{"type":"Point","coordinates":[31.1978245,30.0444161]},"properties":{"osm_id":6782879165,"addr:housenumber":"31","addr:street":"شارع أبو بكر الصديق","addr:country":"EG","addr:district":"الدقى","addr:district:en":"Al Doqi","addr:postcode":"12615","addr:province":"الجيزه","addr:province:en":"Giza","addr:street:en":"Abou Bakr Al Sedik Street","addr:subdistrict":"مدينه الاوقاف","addr:subdistrict:en":"Al Awqaf City"}},
{"type":"Feature","geometry":{"type":"Point","coordinates":[31.1978352,30.0442419]},"properties":{"osm_id":6782879166,"addr:housenumber":"29","addr:street":"شارع أبو بكر الصديق","addr:country":"EG","addr:district":"الدقى","addr:district:en":"Al Doqi","addr:postcode":"12615","addr:province":"الجيزه","addr:province:en":"Giza","addr:street:en":"Abou Bakr Al Sedik Street","addr:subdistrict":"مدينه الاوقاف","addr:subdistrict:en":"Al Awqaf City"}},
{"type":"Feature","geometry":{"type":"Point","coordinates":[31.197871,30.0440322]},"properties":{"osm_id":6782879167,"addr:housenumber":"27","addr:street":"شارع أبو بكر الصديق","addr:country":"EG","addr:district":"الدقى","addr:district:en":"Al Doqi","addr:postcode":"12615","addr:province":"الجيزه","addr:province:en":"Giza","addr:street:en":"Abou Bakr Al Sedik Street","addr:subdistrict":"مدينه الاوقاف","addr:subdistrict:en":"Al Awqaf City"}},
{"type":"Feature","geometry":{"type":"Point","coordinates":[31.1978987,30.0437969]},"properties":{"osm_id":6782879168,"addr:housenumber":"25","addr:street":"شارع أبو بكر الصديق","addr:country":"EG","addr:district":"الدقى","addr:district:en":"Al Doqi","addr:postcode":"12615","addr:province":"الجيزه","addr:province:en":"Giza","addr:street:en":"Abou Bakr Al Sedik Street","addr:subdistrict":"مدينه الاوقاف","addr:subdistrict:en":"Al Awqaf City"}},
{"type":"Feature","geometry":{"type":"Point","coordinates":[31.1979264,30.0435617]},"properties":{"osm_id":6782879169,"addr:housenumber":"23","addr:street":"شارع أبو بكر الصديق","addr:country":"EG","addr:district":"الدقى","addr:district:en":"Al Doqi","addr:postcode":"12615","addr:province":"الجيزه","addr:province:en":"Giza","addr:street:en":"Abou Bakr Al Sedik Street","addr:subdistrict":"مدينه الاوقاف","addr:subdistrict:en":"Al Awqaf City"}},
{"type":"Feature","geometry":{"type":"Point","coordinates":[31.1982617,30.0436104]},"properties":{"osm_id":6782879170,"addr:housenumber":"36","addr:street":"شارع المروه","addr:country":"EG","addr:district":"الدقى","addr:district:en":"Al Doqi","addr:postcode":"12615","addr:province":"الجيزه","addr:province:en":"Giza","addr:street:en":"Al Marwa Street","addr:subdistrict":"مدينه الاوقاف","addr:subdistrict:en":"Al Awqaf City"}},
{"type":"Feature","geometry":{"type":"Point","coordinates":[31.1985916,30.0440992]},"properties":{"osm_id":6782879171,"addr:housenumber":"5","addr:street":"شارع الصفا","addr:country":"EG","addr:district":"الدقى","addr:district:en":"Al Doqi","addr:postcode":"12615","addr:province":"الجيزه","addr:province:en":"Giza","addr:street:en":"Al Safa Street","addr:subdistrict":"مدينه الاوقاف","addr:subdistrict:en":"Al Awqaf City"}},
{"type":"Feature","geometry":{"type":"Point","coordinates":[31.1985648,30.0443232]},"properties":{"osm_id":6782879172,"addr:housenumber":"7","addr:street":"شارع الصفا","addr:country":"EG","addr:district":"الدقى","addr:district:en":"Al Doqi","addr:postcode":"12615","addr:province":"الجيزه","addr:province:en":"Giza","addr:street:en":"Al Safa Street","addr:subdistrict":"مدينه الاوقاف","addr:subdistrict:en":"Al Awqaf City"}},
{"type":"Feature","geometry":{"type":"Point","coordinates":[31.1986184,30.0438751]},"properties":{"osm_id":6782879173,"addr:housenumber":"3","addr:street":"شارع الصفا","addr:country":"EG","addr:district":"الدقى","addr:district:en":"Al Doqi","addr:postcode":"12615","addr:province":"الجيزه","addr:province:en":"Giza","addr:street:en":"Al Safa Street","addr:subdistrict":"مدينه الاوقاف","addr:subdistrict:en":"Al Awqaf City"}},
{"type":"Feature","geometry":{"type":"Point","coordinates":[31.1986533,30.0436522]},